[
  {
    "name": "船橋旭こども園",
    "lat": "35.730545",
    "lng": "139.992825",
    "details": {
      "number": "1",
      "address": "千葉県船橋市夏見台5-7-13",
      "phone_number": "047-439-0010",
      "type": "認定こども園（保育所型）",
      "capacity": "150",
      "acceptable_age": "0歳～5歳"
    }
  },
  {
    "name": "田喜野井旭こども園",
    "lat": "35.703267",
    "lng": "140.04244",
    "details": {
      "number": "2",
      "address": "千葉県船橋市田喜野井4-30-12",
      "phone_number": "047-456-3180",
      "type": "認定こども園（保育所型）",
      "capacity": "60",
      "acceptable_age": "0歳～5歳"
    }
  },
  {
    "name": "認定こども園　不二幼稚園",
    "lat": "35.709871",
    "lng": "140.021396",
    "details": {
      "number": "3",
      "address": "千葉県船橋市飯山満町2-666",
      "phone_number": "047-466-2925",
      "type": "認定こども園（保育所型）",
      "capacity": "318",
      "acceptable_age": "0歳～5歳"
    }
  },
  {
    "name": "認定こども園おひさま",
    "lat": "35.702927",
    "lng": "140.023037",
    "details": {
      "number": "4",
      "address": "千葉県船橋市前原西6-1-64",
      "phone_number": "047-476-7802",
      "type": "認定こども園（保育所型）",
      "capacity": "79",
      "acceptable_age": "0歳～5歳"
    }
  },
  {
    "name": "認定こども園大浜幼稚園",
    "lat": "35.713386",
    "lng": "140.046072",
    "details": {
      "number": "5",
      "address": "千葉県船橋市薬円台4-6-3",
      "phone_number": "047-466-5720",
      "type": "認定こども園（幼保連携型）",
      "capacity": "208",
      "acceptable_age": "1歳～5歳"
    }
  },
  {
    "name": "そらまめこども園　船橋駅前",
    "lat": "35.700362",
    "lng": "139.983829",
    "details": {
      "number": "6",
      "address": "千葉県船橋市本町1-30-1",
      "phone_number": "047-405-9951",
      "type": "認定こども園（保育所型）",
      "capacity": "111",
      "acceptable_age": "0歳～5歳"
    }
  },
  {
    "name": "高根台文化こども園",
    "lat": "35.731542",
    "lng": "140.04185",
    "details": {
      "number": "7",
      "address": "千葉県船橋市高根台3-3-2",
      "phone_number": "047-466-2511",
      "type": "認定こども園（保育所型）",
      "capacity": "210",
      "acceptable_age": "1歳～5歳"
    }
  },
  {
    "name": "二和ひつじ幼稚園",
    "lat": "35.755106",
    "lng": "140.024883",
    "details": {
      "number": "8",
      "address": "千葉県船橋市二和東6-23-21",
      "phone_number": "047-447-2041",
      "type": "認定こども園（幼保連携型）",
      "capacity": "144",
      "acceptable_age": "3歳～5歳"
    }
  },
  {
    "name": "モンテッソーリたんぽぽ子供の家",
    "lat": "35.69848",
    "lng": "140.01932",
    "details": {
      "number": "9",
      "address": "千葉県船橋市前原西4-30-22",
      "phone_number": "047-478-9172",
      "type": "認定こども園（保育所型）",
      "capacity": "41",
      "acceptable_age": "3歳～5歳"
    }
  },
  {
    "name": "小規模保育所　リトルキディ",
    "lat": "35.728485",
    "lng": "140.061017",
    "details": {
      "number": "10",
      "address": "千葉県船橋市坪井東3-10-1グランソシア船橋芽吹の杜内",
      "phone_number": "047-436-8011",
      "type": "小規模保育所",
      "capacity": "19",
      "acceptable_age": "0歳～2歳"
    }
  },
  {
    "name": "うみのほいくえん",
    "lat": "35.695792",
    "lng": "139.983968",
    "details": {
      "number": "11",
      "address": "千葉県船橋市湊町2-2-20アソルティ船橋102/202",
      "phone_number": "047-468-8698",
      "type": "小規模保育所",
      "capacity": "19",
      "acceptable_age": "0歳～2歳"
    }
  },
  {
    "name": "パルパステル保育園",
    "lat": "35.701869",
    "lng": "139.988624",
    "details": {
      "number": "12",
      "address": "千葉県船橋市本町5-14-15 パルパステル",
      "phone_number": "047-460-6666",
      "type": "小規模保育所",
      "capacity": "19",
      "acceptable_age": "0歳～2歳"
    }
  },
  {
    "name": "キッズランド未来",
    "lat": "35.755899",
    "lng": "140.024276",
    "details": {
      "number": "13",
      "address": "千葉県船橋市二和東6-18-27　1階",
      "phone_number": "047-448-7735",
      "type": "小規模保育所",
      "capacity": "19",
      "acceptable_age": "0歳～2歳"
    }
  },
  {
    "name": "保育ルームキューティー",
    "lat": "35.700653",
    "lng": "140.031883",
    "details": {
      "number": "14",
      "address": "千葉県船橋市前原東5-18-4",
      "phone_number": "047-427-7643",
      "type": "小規模保育所",
      "capacity": "19",
      "acceptable_age": "0歳～2歳"
    }
  },
  {
    "name": "太陽の子　船橋三咲保育園",
    "lat": "35.736036",
    "lng": "140.023863",
    "details": {
      "number": "15",
      "address": "千葉県船橋市南三咲1-20-10",
      "phone_number": "047-440-6585",
      "type": "小規模保育所",
      "capacity": "19",
      "acceptable_age": "0歳～2歳"
    }
  },
  {
    "name": "ひだまり滝台保育園",
    "lat": "35.707728",
    "lng": "140.036775",
    "details": {
      "number": "16",
      "address": "千葉県船橋市滝台1-12-12",
      "phone_number": "047-436-8840",
      "type": "小規模保育所",
      "capacity": "18",
      "acceptable_age": "0歳～2歳"
    }
  },
  {
    "name": "京進のほいくえん　HOPPA船橋駅園",
    "lat": "35.7010301",
    "lng": "139.9904967",
    "details": {
      "number": "17",
      "address": "千葉県船橋市本町4-7-17",
      "phone_number": "047-405-2613",
      "type": "小規模保育所",
      "capacity": "12",
      "acceptable_age": "0歳～2歳"
    }
  },
  {
    "name": "京進のほいくえん　HOPPA津田沼園",
    "lat": "35.692672",
    "lng": "140.019084",
    "details": {
      "number": "18",
      "address": "千葉県船橋市前原西2-7-9-2F",
      "phone_number": "047-409-9571",
      "type": "小規模保育所",
      "capacity": "19",
      "acceptable_age": "0歳～2歳"
    }
  },
  {
    "name": "リトル・清和",
    "lat": "35.726264",
    "lng": "139.97538",
    "details": {
      "number": "19",
      "address": "千葉県船橋市前貝塚町646-8",
      "phone_number": "047-404-7516",
      "type": "小規模保育所",
      "capacity": "15",
      "acceptable_age": "1歳～2歳"
    }
  },
  {
    "name": "トレポンテ駅前保育園",
    "lat": "35.705341",
    "lng": "139.985422",
    "details": {
      "number": "20",
      "address": "千葉県船橋市本町6-8-1",
      "phone_number": "047-409-8816",
      "type": "小規模保育所",
      "capacity": "19",
      "acceptable_age": "0歳～2歳"
    }
  },
  {
    "name": "りりぱっとナーサリー津田沼園",
    "lat": "35.694175",
    "lng": "140.019041",
    "details": {
      "number": "21",
      "address": "千葉県船橋市前原西2-44-10",
      "phone_number": "047-405-2331",
      "type": "小規模保育所",
      "capacity": "19",
      "acceptable_age": "0歳～2歳"
    }
  },
  {
    "name": "りりぱっとナーサリー中山園",
    "lat": "35.715089",
    "lng": "139.942453",
    "details": {
      "number": "22",
      "address": "千葉県船橋市本中山2-23-16",
      "phone_number": "047-303-3038",
      "type": "小規模保育所",
      "capacity": "12",
      "acceptable_age": "0歳～2歳"
    }
  },
  {
    "name": "すずらん保育園",
    "lat": "35.697138",
    "lng": "140.05156",
    "details": {
      "number": "23",
      "address": "千葉県船橋市三山3-39-2",
      "phone_number": "047-409-9541",
      "type": "小規模保育所",
      "capacity": "19",
      "acceptable_age": "0歳～2歳"
    }
  },
  {
    "name": "健伸むぎの子保育園",
    "lat": "35.746086",
    "lng": "139.994611",
    "details": {
      "number": "24",
      "address": "千葉県船橋市丸山5-15-15",
      "phone_number": "047-404-8746",
      "type": "小規模保育所",
      "capacity": "19",
      "acceptable_age": "0歳～2歳"
    }
  },
  {
    "name": "クレヨンキッズ北習志野園",
    "lat": "35.723085",
    "lng": "140.040289",
    "details": {
      "number": "25",
      "address": "千葉県船橋市習志野台1-34-25",
      "phone_number": "047-456-4440",
      "type": "小規模保育所",
      "capacity": "19",
      "acceptable_age": "1歳～2歳"
    }
  },
  {
    "name": "Gakkenほいくえん 西船橋",
    "lat": "35.708669",
    "lng": "139.948837",
    "details": {
      "number": "26",
      "address": "千葉県船橋市二子町610",
      "phone_number": "047-302-7761",
      "type": "小規模保育所",
      "capacity": "19",
      "acceptable_age": "0歳～2歳"
    }
  },
  {
    "name": "東船橋色葉保育園",
    "lat": "35.699521",
    "lng": "140.005158",
    "details": {
      "number": "27",
      "address": "千葉県船橋市東船橋4-31-9",
      "phone_number": "047-460-2727",
      "type": "小規模保育所",
      "capacity": "11",
      "acceptable_age": "0歳～2歳"
    }
  },
  {
    "name": "リップル保育園　西船橋",
    "lat": "35.707227",
    "lng": "139.956057",
    "details": {
      "number": "28",
      "address": "千葉県船橋市葛飾町2-378-7",
      "phone_number": "047-401-5567",
      "type": "小規模保育所",
      "capacity": "19",
      "acceptable_age": "0歳～2歳"
    }
  },
  {
    "name": "ひかり保育園",
    "lat": "35.715433",
    "lng": "140.044253",
    "details": {
      "number": "29",
      "address": "千葉県船橋市習志野台4-3-9",
      "phone_number": "047-456-6370",
      "type": "小規模保育所",
      "capacity": "18",
      "acceptable_age": "0歳～2歳"
    }
  },
  {
    "name": "ミアヘルサ保育園ひびき新船橋第二",
    "lat": "35.711456",
    "lng": "139.97995",
    "details": {
      "number": "30",
      "address": "千葉県船橋市山手1-3-17",
      "phone_number": "047-409-9055",
      "type": "小規模保育所",
      "capacity": "19",
      "acceptable_age": "0歳～2歳"
    }
  },
  {
    "name": "やきがやなかよし保育園",
    "lat": "35.760739",
    "lng": "140.032752",
    "details": {
      "number": "31",
      "address": "千葉県船橋市八木が谷2-18-1",
      "phone_number": "047-498-9367",
      "type": "小規模保育所",
      "capacity": "19",
      "acceptable_age": "1歳～2歳"
    }
  },
  {
    "name": "サンヴェルデ保育園",
    "lat": "35.728843",
    "lng": "140.015152",
    "details": {
      "number": "32",
      "address": "千葉県船橋市緑台2-4-17",
      "phone_number": "047-402-2270",
      "type": "小規模保育所",
      "capacity": "19",
      "acceptable_age": "1歳～2歳"
    }
  },
  {
    "name": "ひだまり保育園",
    "lat": "35.710184",
    "lng": "140.037553",
    "details": {
      "number": "33",
      "address": "千葉県船橋市薬円台6-1-1",
      "phone_number": "047-404-8511",
      "type": "小規模保育所",
      "capacity": "18",
      "acceptable_age": "0歳～2歳"
    }
  },
  {
    "name": "こりんご保育園",
    "lat": "35.699181",
    "lng": "140.004063",
    "details": {
      "number": "34",
      "address": "千葉県船橋市東船橋1-38-3-2F",
      "phone_number": "047-406-4380",
      "type": "小規模保育所",
      "capacity": "15",
      "acceptable_age": "0歳～2歳"
    }
  },
  {
    "name": "保育ルーム　サンライズ船橋",
    "lat": "35.700845",
    "lng": "139.982058",
    "details": {
      "number": "35",
      "address": "千葉県船橋市本町1-25-18",
      "phone_number": "047-422-0805",
      "type": "小規模保育所",
      "capacity": "18",
      "acceptable_age": "0歳～2歳"
    }
  },
  {
    "name": "キッズフィールド東船橋駅前園",
    "lat": "35.699438",
    "lng": "140.004948",
    "details": {
      "number": "36",
      "address": "千葉県船橋市東船橋4-31-7-201",
      "phone_number": "047-407-3948",
      "type": "小規模保育所",
      "capacity": "19",
      "acceptable_age": "0歳～2歳"
    }
  },
  {
    "name": "オーチャード・キッズ船橋馬込沢園",
    "lat": "35.741692",
    "lng": "139.991865",
    "details": {
      "number": "37",
      "address": "千葉県船橋市藤原7-3-1-5F",
      "phone_number": "047-468-8833",
      "type": "小規模保育所",
      "capacity": "19",
      "acceptable_age": "0歳～2歳"
    }
  },
  {
    "name": "すくすく北習志野ほいくえん",
    "lat": "35.719497",
    "lng": "140.044044",
    "details": {
      "number": "38",
      "address": "千葉県船橋市習志野台3-17-16",
      "phone_number": "047-769-7739",
      "type": "小規模保育所",
      "capacity": "19",
      "acceptable_age": "0歳～2歳"
    }
  },
  {
    "name": "保育ステーション　ハミングバード",
    "lat": "35.721099",
    "lng": "140.042446",
    "details": {
      "number": "39",
      "address": "千葉県船橋市習志野台3-1-1-3F",
      "phone_number": "047-401-4795",
      "type": "小規模保育所",
      "capacity": "19",
      "acceptable_age": "1歳～2歳"
    }
  },
  {
    "name": "前原ベイビーズ保育園",
    "lat": "35.700078",
    "lng": "140.03095",
    "details": {
      "number": "40",
      "address": "千葉県船橋市前原東5-16-15",
      "phone_number": "047-411-9185",
      "type": "小規模保育所",
      "capacity": "19",
      "acceptable_age": "0歳～2歳"
    }
  },
  {
    "name": "宮本第一保育園",
    "lat": "35.697922",
    "lng": "139.995679",
    "details": {
      "number": "41",
      "address": "千葉県船橋市宮本6-26-27",
      "phone_number": "047-422-5639",
      "type": "公立保育園",
      "capacity": "126",
      "acceptable_age": "0歳～5歳"
    }
  },
  {
    "name": "宮本第二保育園",
    "lat": "35.691483",
    "lng": "140.000104",
    "details": {
      "number": "42",
      "address": "千葉県船橋市宮本8-9-10",
      "phone_number": "047-423-1304",
      "type": "公立保育園",
      "capacity": "168",
      "acceptable_age": "0歳～5歳"
    }
  },
  {
    "name": "若松保育園",
    "lat": "35.679483",
    "lng": "139.994391",
    "details": {
      "number": "43",
      "address": "千葉県船橋市若松2-6-3",
      "phone_number": "047-433-4041",
      "type": "公立保育園",
      "capacity": "168",
      "acceptable_age": "0歳～5歳"
    }
  },
  {
    "name": "湊町保育園",
    "lat": "35.692838",
    "lng": "139.985127",
    "details": {
      "number": "44",
      "address": "千葉県船橋市湊町1-16-23",
      "phone_number": "047-431-4961",
      "type": "公立保育園",
      "capacity": "277",
      "acceptable_age": "0歳～5歳"
    }
  },
  {
    "name": "千鳥保育園",
    "lat": "35.698057",
    "lng": "139.976935",
    "details": {
      "number": "45",
      "address": "千葉県船橋市南本町13-1",
      "phone_number": "047-431-5061",
      "type": "公立保育園",
      "capacity": "213",
      "acceptable_age": "0歳～5歳"
    }
  },
  {
    "name": "中央保育園",
    "lat": "35.69993",
    "lng": "139.988984",
    "details": {
      "number": "46",
      "address": "千葉県船橋市本町4-17-21",
      "phone_number": "047-422-4762",
      "type": "公立保育園",
      "capacity": "209",
      "acceptable_age": "0歳～5歳"
    }
  },
  {
    "name": "本町保育園",
    "lat": "35.70521",
    "lng": "139.987444",
    "details": {
      "number": "47",
      "address": "千葉県船橋市本町6-7-18",
      "phone_number": "047-424-7011",
      "type": "公立保育園",
      "capacity": "140",
      "acceptable_age": "0歳～5歳"
    }
  },
  {
    "name": "海神第一保育園",
    "lat": "35.704295",
    "lng": "139.981581",
    "details": {
      "number": "48",
      "address": "千葉県船橋市海神2-13-25",
      "phone_number": "047-422-2462",
      "type": "公立保育園",
      "capacity": "244",
      "acceptable_age": "0歳～5歳"
    }
  },
  {
    "name": "海神第二保育園",
    "lat": "35.699987",
    "lng": "139.98127",
    "details": {
      "number": "49",
      "address": "千葉県船橋市本町1-23-7",
      "phone_number": "047-435-0783",
      "type": "公立保育園",
      "capacity": "75",
      "acceptable_age": "0歳～5歳"
    }
  },
  {
    "name": "西船保育園",
    "lat": "35.713913",
    "lng": "139.958122",
    "details": {
      "number": "50",
      "address": "千葉県船橋市西船6-1-24",
      "phone_number": "047-333-8187",
      "type": "公立保育園",
      "capacity": "150",
      "acceptable_age": "0歳～5歳"
    }
  },
  {
    "name": "本中山保育園",
    "lat": "35.707236",
    "lng": "139.942625",
    "details": {
      "number": "51",
      "address": "千葉県船橋市本中山5-6-1",
      "phone_number": "047-333-6451",
      "type": "公立保育園",
      "capacity": "155",
      "acceptable_age": "0歳～5歳"
    }
  },
  {
    "name": "若葉保育園",
    "lat": "35.744004",
    "lng": "139.988008",
    "details": {
      "number": "52",
      "address": "千葉県船橋市藤原7-41-1",
      "phone_number": "047-439-0472",
      "type": "公立保育園",
      "capacity": "163",
      "acceptable_age": "0歳～5歳"
    }
  },
  {
    "name": "行田保育園",
    "lat": "35.717036",
    "lng": "139.969447",
    "details": {
      "number": "53",
      "address": "千葉県船橋市行田3-1-2",
      "phone_number": "047-439-5000",
      "type": "公立保育園",
      "capacity": "201",
      "acceptable_age": "0歳～5歳"
    }
  },
  {
    "name": "夏見第一保育園",
    "lat": "35.712894",
    "lng": "139.992031",
    "details": {
      "number": "54",
      "address": "千葉県船橋市夏見4-10-26",
      "phone_number": "047-422-5198",
      "type": "公立保育園",
      "capacity": "147",
      "acceptable_age": "0歳～5歳"
    }
  },
  {
    "name": "夏見第二保育園",
    "lat": "35.722828",
    "lng": "139.992079",
    "details": {
      "number": "55",
      "address": "千葉県船橋市夏見台4-1-1",
      "phone_number": "047-439-6231",
      "type": "公立保育園",
      "capacity": "150",
      "acceptable_age": "0歳～5歳"
    }
  },
  {
    "name": "高根保育園",
    "lat": "35.731913",
    "lng": "140.026873",
    "details": {
      "number": "56",
      "address": "千葉県船橋市新高根4-19-2",
      "phone_number": "047-463-1418",
      "type": "公立保育園",
      "capacity": "165",
      "acceptable_age": "0歳～5歳"
    }
  },
  {
    "name": "金杉台保育園",
    "lat": "35.735244",
    "lng": "140.011386",
    "details": {
      "number": "57",
      "address": "千葉県船橋市金杉台1-1-6",
      "phone_number": "047-447-0022",
      "type": "公立保育園",
      "capacity": "120",
      "acceptable_age": "0歳～5歳"
    }
  },
  {
    "name": "二和保育園",
    "lat": "35.751493",
    "lng": "140.025349",
    "details": {
      "number": "58",
      "address": "千葉県船橋市二和東5-50-1",
      "phone_number": "047-447-0801",
      "type": "公立保育園",
      "capacity": "147",
      "acceptable_age": "0歳～5歳"
    }
  },
  {
    "name": "三山保育園",
    "lat": "35.70142",
    "lng": "140.058104",
    "details": {
      "number": "59",
      "address": "千葉県船橋市三山6-26-26",
      "phone_number": "047-476-2701",
      "type": "公立保育園",
      "capacity": "162",
      "acceptable_age": "0歳～5歳"
    }
  },
  {
    "name": "二宮保育園",
    "lat": "35.699956",
    "lng": "140.01976",
    "details": {
      "number": "60",
      "address": "千葉県船橋市前原西6-1-12",
      "phone_number": "047-472-1097",
      "type": "公立保育園",
      "capacity": "195",
      "acceptable_age": "0歳～5歳"
    }
  },
  {
    "name": "習志野台第一保育園",
    "lat": "35.723273",
    "lng": "140.046244",
    "details": {
      "number": "61",
      "address": "千葉県船橋市習志野台2-50-3",
      "phone_number": "047-465-4124",
      "type": "公立保育園",
      "capacity": "248",
      "acceptable_age": "0歳～5歳"
    }
  },
  {
    "name": "習志野台第二保育園",
    "lat": "35.726656",
    "lng": "140.049602",
    "details": {
      "number": "62",
      "address": "千葉県船橋市習志野台6-7-1",
      "phone_number": "047-464-3818",
      "type": "公立保育園",
      "capacity": "152",
      "acceptable_age": "0歳～5歳"
    }
  },
  {
    "name": "高根台保育園",
    "lat": "35.73385",
    "lng": "140.031481",
    "details": {
      "number": "63",
      "address": "千葉県船橋市高根台2-2-2",
      "phone_number": "047-466-2611",
      "type": "公立保育園",
      "capacity": "200",
      "acceptable_age": "0歳～5歳"
    }
  },
  {
    "name": "緑台保育園",
    "lat": "35.729931",
    "lng": "140.013269",
    "details": {
      "number": "64",
      "address": "千葉県船橋市緑台2-4-11",
      "phone_number": "047-447-9122",
      "type": "公立保育園",
      "capacity": "120",
      "acceptable_age": "0歳～5歳"
    }
  },
  {
    "name": "芝山第一保育園",
    "lat": "35.71785",
    "lng": "140.019475",
    "details": {
      "number": "65",
      "address": "千葉県船橋市芝山3-10-4",
      "phone_number": "047-462-7575",
      "type": "公立保育園",
      "capacity": "187",
      "acceptable_age": "0歳～5歳"
    }
  },
  {
    "name": "小室保育園",
    "lat": "35.788141",
    "lng": "140.076097",
    "details": {
      "number": "66",
      "address": "千葉県船橋市小室町3305",
      "phone_number": "047-457-1717",
      "type": "公立保育園",
      "capacity": "120",
      "acceptable_age": "0歳～5歳"
    }
  },
  {
    "name": "浜町保育園",
    "lat": "35.691239",
    "lng": "139.989349",
    "details": {
      "number": "67",
      "address": "千葉県船橋市浜町1-1-1",
      "phone_number": "047-431-3262",
      "type": "公立保育園",
      "capacity": "143",
      "acceptable_age": "0歳～5歳"
    }
  },
  {
    "name": "めぐみ保育園",
    "lat": "35.712419",
    "lng": "140.046775",
    "details": {
      "number": "68",
      "address": "千葉県船橋市薬円台4-6-1",
      "phone_number": "047-466-0566",
      "type": "私立保育園",
      "capacity": "222",
      "acceptable_age": "0歳～5歳"
    }
  },
  {
    "name": "中山あけぼの保育園",
    "lat": "35.713203",
    "lng": "139.942313",
    "details": {
      "number": "69",
      "address": "千葉県船橋市本中山3-19-3",
      "phone_number": "047-334-9950",
      "type": "私立保育園",
      "capacity": "170",
      "acceptable_age": "0歳～5歳"
    }
  },
  {
    "name": "ひばり保育園",
    "lat": "35.735253",
    "lng": "140.040021",
    "details": {
      "number": "70",
      "address": "千葉県船橋市松が丘1-33-4",
      "phone_number": "047-466-5915",
      "type": "私立保育園",
      "capacity": "120",
      "acceptable_age": "0歳～5歳"
    }
  },
  {
    "name": "杉の子保育園",
    "lat": "35.729631",
    "lng": "140.02256",
    "details": {
      "number": "71",
      "address": "千葉県船橋市新高根3-8-1",
      "phone_number": "047-465-2336",
      "type": "私立保育園",
      "capacity": "120",
      "acceptable_age": "0歳～5歳"
    }
  },
  {
    "name": "しらゆり保育園",
    "lat": "35.720777",
    "lng": "139.984",
    "details": {
      "number": "72",
      "address": "千葉県船橋市北本町2-47-7",
      "phone_number": "047-422-5051",
      "type": "私立保育園",
      "capacity": "100",
      "acceptable_age": "0歳～5歳"
    }
  },
  {
    "name": "あすなろ保育園",
    "lat": "35.74198",
    "lng": "140.014771",
    "details": {
      "number": "73",
      "address": "千葉県船橋市二和西2-6-1",
      "phone_number": "047-447-0023",
      "type": "私立保育園",
      "capacity": "120",
      "acceptable_age": "0歳～5歳"
    }
  },
  {
    "name": "たかね台ﾍﾞﾋﾞｰﾎｰﾑ",
    "lat": "35.730606",
    "lng": "140.03051",
    "details": {
      "number": "74",
      "address": "千葉県船橋市高根台1-9-23-201",
      "phone_number": "047-465-1100",
      "type": "私立保育園",
      "capacity": "30",
      "acceptable_age": "0歳～2歳"
    }
  },
  {
    "name": "まこと保育園",
    "lat": "35.764391",
    "lng": "140.0559",
    "details": {
      "number": "75",
      "address": "千葉県船橋市神保町275-34",
      "phone_number": "047-457-1685",
      "type": "私立保育園",
      "capacity": "150",
      "acceptable_age": "0歳～5歳"
    }
  },
  {
    "name": "まこと保育園分園",
    "lat": "35.724875",
    "lng": "140.049902",
    "details": {
      "number": "76",
      "address": "千葉県船橋市習志野台2-73-9",
      "phone_number": "047-465-0230",
      "type": "私立保育園",
      "capacity": "29",
      "acceptable_age": "0歳～2歳"
    }
  },
  {
    "name": "三咲小鳩保育園",
    "lat": "35.753879",
    "lng": "140.036454",
    "details": {
      "number": "77",
      "address": "千葉県船橋市三咲3-6-2",
      "phone_number": "047-447-7612",
      "type": "私立保育園",
      "capacity": "300",
      "acceptable_age": "0歳～5歳"
    }
  },
  {
    "name": "てまり保育園",
    "lat": "35.738814",
    "lng": "139.979188",
    "details": {
      "number": "78",
      "address": "千葉県船橋市藤原5-4-39",
      "phone_number": "047-438-0073",
      "type": "私立保育園",
      "capacity": "130",
      "acceptable_age": "0歳～5歳"
    }
  },
  {
    "name": "みどり保育園",
    "lat": "35.70328",
    "lng": "139.999396",
    "details": {
      "number": "79",
      "address": "千葉県船橋市市場4-12-3",
      "phone_number": "047-424-4152",
      "type": "私立保育園",
      "capacity": "120",
      "acceptable_age": "0歳～5歳"
    }
  },
  {
    "name": "三山つくし保育園",
    "lat": "35.693395",
    "lng": "140.062584",
    "details": {
      "number": "80",
      "address": "千葉県船橋市三山9-31-7",
      "phone_number": "047-473-4435",
      "type": "私立保育園",
      "capacity": "143",
      "acceptable_age": "0歳～5歳"
    }
  },
  {
    "name": "アンデルセン保育園",
    "lat": "35.727379",
    "lng": "140.052193",
    "details": {
      "number": "81",
      "address": "千葉県船橋市習志野台7-8-21",
      "phone_number": "047-462-8111",
      "type": "私立保育園",
      "capacity": "120",
      "acceptable_age": "0歳～5歳"
    }
  },
  {
    "name": "やまびこ保育園",
    "lat": "35.760739",
    "lng": "140.022211",
    "details": {
      "number": "82",
      "address": "千葉県船橋市咲が丘2-11-5",
      "phone_number": "047-449-0225",
      "type": "私立保育園",
      "capacity": "160",
      "acceptable_age": "0歳～5歳"
    }
  },
  {
    "name": "弥生保育園",
    "lat": "35.710973",
    "lng": "139.945285",
    "details": {
      "number": "83",
      "address": "千葉県船橋市本中山3-4-18",
      "phone_number": "047-332-7280",
      "type": "私立保育園",
      "capacity": "150",
      "acceptable_age": "0歳～5歳"
    }
  },
  {
    "name": "かもめ保育園",
    "lat": "35.72724",
    "lng": "140.025719",
    "details": {
      "number": "84",
      "address": "千葉県船橋市新高根6-43-3",
      "phone_number": "047-466-5553",
      "type": "私立保育園",
      "capacity": "90",
      "acceptable_age": "0歳～5歳"
    }
  },
  {
    "name": "かもめ保育園芝山分園",
    "lat": "35.716047",
    "lng": "140.020623",
    "details": {
      "number": "85",
      "address": "千葉県船橋市芝山3-10-8",
      "phone_number": "047-456-4353",
      "type": "私立保育園",
      "capacity": "29",
      "acceptable_age": "0歳～2歳"
    }
  },
  {
    "name": "前原保育園",
    "lat": "35.703197",
    "lng": "140.027082",
    "details": {
      "number": "86",
      "address": "千葉県船橋市前原西8-23-5",
      "phone_number": "047-465-2429",
      "type": "私立保育園",
      "capacity": "90",
      "acceptable_age": "0歳～5歳"
    }
  },
  {
    "name": "ベル・ナーサリー",
    "lat": "35.721091",
    "lng": "139.981715",
    "details": {
      "number": "87",
      "address": "千葉県船橋市行田1-49-1",
      "phone_number": "047-430-0086",
      "type": "私立保育園",
      "capacity": "60",
      "acceptable_age": "0歳～2歳"
    }
  },
  {
    "name": "アンデルセン第二保育園",
    "lat": "35.718852",
    "lng": "140.05436",
    "details": {
      "number": "88",
      "address": "千葉県船橋市習志野台5-43-3",
      "phone_number": "047-468-4686",
      "type": "私立保育園",
      "capacity": "70",
      "acceptable_age": "0歳～5歳"
    }
  },
  {
    "name": "西船みどり保育園",
    "lat": "35.70575",
    "lng": "139.963712",
    "details": {
      "number": "89",
      "address": "千葉県船橋市西船1-21-50",
      "phone_number": "047-435-4152",
      "type": "私立保育園",
      "capacity": "100",
      "acceptable_age": "0歳～5歳"
    }
  },
  {
    "name": "アリスなかよし保育園",
    "lat": "35.71393",
    "lng": "139.970257",
    "details": {
      "number": "90",
      "address": "千葉県船橋市西船2-29-28",
      "phone_number": "047-436-1212",
      "type": "私立保育園",
      "capacity": "90",
      "acceptable_age": "0歳～5歳"
    }
  },
  {
    "name": "ロータス保育園",
    "lat": "35.739785",
    "lng": "139.982225",
    "details": {
      "number": "91",
      "address": "千葉県船橋市藤原5-23-2",
      "phone_number": "047-439-6663",
      "type": "私立保育園",
      "capacity": "60",
      "acceptable_age": "0歳～5歳"
    }
  },
  {
    "name": "海神南保育園",
    "lat": "35.700161",
    "lng": "139.967623",
    "details": {
      "number": "92",
      "address": "千葉県船橋市海神町南1-1627-2",
      "phone_number": "047-411-6543",
      "type": "私立保育園",
      "capacity": "80",
      "acceptable_age": "0歳～5歳"
    }
  },
  {
    "name": "前原ひまわり保育園",
    "lat": "35.696685",
    "lng": "140.016482",
    "details": {
      "number": "93",
      "address": "千葉県船橋市前原西4-18-19",
      "phone_number": "047-474-7788",
      "type": "私立保育園",
      "capacity": "110",
      "acceptable_age": "0歳～5歳"
    }
  },
  {
    "name": "夏見台保育園",
    "lat": "35.721282",
    "lng": "139.996333",
    "details": {
      "number": "94",
      "address": "千葉県船橋市夏見台2-16-1",
      "phone_number": "047-429-7231",
      "type": "私立保育園",
      "capacity": "60",
      "acceptable_age": "0歳～5歳"
    }
  },
  {
    "name": "ﾌﾟﾚｽｸｰﾙ･ﾍﾞﾙ",
    "lat": "35.709326",
    "lng": "139.974908",
    "details": {
      "number": "95",
      "address": "千葉県船橋市海神4-23-16",
      "phone_number": "047-410-0311",
      "type": "私立保育園",
      "capacity": "100",
      "acceptable_age": "3歳～5歳"
    }
  },
  {
    "name": "みそら保育園",
    "lat": "35.714409",
    "lng": "139.954308",
    "details": {
      "number": "96",
      "address": "千葉県船橋市東中山2-1-20",
      "phone_number": "047-302-2505",
      "type": "私立保育園",
      "capacity": "90",
      "acceptable_age": "0歳～5歳"
    }
  },
  {
    "name": "さくら保育園",
    "lat": "35.709718",
    "lng": "139.950103",
    "details": {
      "number": "97",
      "address": "千葉県船橋市二子町474",
      "phone_number": "047-302-8301",
      "type": "私立保育園",
      "capacity": "120",
      "acceptable_age": "0歳～5歳"
    }
  },
  {
    "name": "印内保育園",
    "lat": "35.714932",
    "lng": "139.964962",
    "details": {
      "number": "98",
      "address": "千葉県船橋市印内2-2-31",
      "phone_number": "047-433-8368",
      "type": "私立保育園",
      "capacity": "60",
      "acceptable_age": "0歳～5歳"
    }
  },
  {
    "name": "船橋あおぞら保育園",
    "lat": "35.753069",
    "lng": "140.03242",
    "details": {
      "number": "99",
      "address": "千葉県船橋市三咲3-12-55",
      "phone_number": "047-407-9870",
      "type": "私立保育園",
      "capacity": "60",
      "acceptable_age": "0歳～5歳"
    }
  },
  {
    "name": "船橋あおぞら保育園分園",
    "lat": "35.755468",
    "lng": "140.022957",
    "details": {
      "number": "100",
      "address": "千葉県船橋市二和東6-16-10　エバラビル2階",
      "phone_number": "047-440-8977",
      "type": "私立保育園",
      "capacity": "15",
      "acceptable_age": "0歳～2歳"
    }
  },
  {
    "name": "ククルなかよし保育園",
    "lat": "35.70896",
    "lng": "139.9879",
    "details": {
      "number": "101",
      "address": "千葉県船橋市夏見2-11-43",
      "phone_number": "047-424-0101",
      "type": "私立保育園",
      "capacity": "150",
      "acceptable_age": "0歳～5歳"
    }
  },
  {
    "name": "なないろ保育園",
    "lat": "35.722454",
    "lng": "139.977821",
    "details": {
      "number": "102",
      "address": "千葉県船橋市行田1-39-5",
      "phone_number": "047-407-1201",
      "type": "私立保育園",
      "capacity": "100",
      "acceptable_age": "0歳～5歳"
    }
  },
  {
    "name": "ローゼンかみやま保育園",
    "lat": "35.732588",
    "lng": "139.974414",
    "details": {
      "number": "103",
      "address": "千葉県船橋市上山町2-288-1",
      "phone_number": "047-406-6010",
      "type": "私立保育園",
      "capacity": "90",
      "acceptable_age": "0歳～5歳"
    }
  },
  {
    "name": "こでまり保育園",
    "lat": "35.73156",
    "lng": "139.967591",
    "details": {
      "number": "104",
      "address": "千葉県船橋市藤原2-2-22",
      "phone_number": "047-703-7700",
      "type": "私立保育園",
      "capacity": "60",
      "acceptable_age": "0歳～5歳"
    }
  },
  {
    "name": "はさま保育園",
    "lat": "35.711604",
    "lng": "140.033798",
    "details": {
      "number": "105",
      "address": "千葉県船橋市飯山満町3-1512-1",
      "phone_number": "047-467-1999",
      "type": "私立保育園",
      "capacity": "115",
      "acceptable_age": "0歳～5歳"
    }
  },
  {
    "name": "美しが丘保育園",
    "lat": "35.72795",
    "lng": "140.062428",
    "details": {
      "number": "106",
      "address": "千葉県船橋市坪井東5-18-30",
      "phone_number": "047-457-8806",
      "type": "私立保育園",
      "capacity": "60",
      "acceptable_age": "0歳～5歳"
    }
  },
  {
    "name": "船橋ピコレール保育園",
    "lat": "35.694968",
    "lng": "139.991076",
    "details": {
      "number": "107",
      "address": "千葉県船橋市宮本2-6-26",
      "phone_number": "047-425-5057",
      "type": "私立保育園",
      "capacity": "60",
      "acceptable_age": "0歳～5歳"
    }
  },
  {
    "name": "なの花保育園",
    "lat": "35.708952",
    "lng": "140.015624",
    "details": {
      "number": "108",
      "address": "千葉県船橋市飯山満町1-967-1",
      "phone_number": "047-405-9512",
      "type": "私立保育園",
      "capacity": "90",
      "acceptable_age": "0歳～5歳"
    }
  },
  {
    "name": "ﾍﾞﾙ･ﾅｰｻﾘｰ･ｱｽｰﾙ",
    "lat": "35.709409",
    "lng": "139.978132",
    "details": {
      "number": "109",
      "address": "千葉県船橋市海神3-30-1",
      "phone_number": "047-432-1717",
      "type": "私立保育園",
      "capacity": "60",
      "acceptable_age": "0歳～5歳"
    }
  },
  {
    "name": "たちばな保育園",
    "lat": "35.693997",
    "lng": "140.024239",
    "details": {
      "number": "110",
      "address": "千葉県船橋市前原西2-24-10",
      "phone_number": "047-470-3745",
      "type": "私立保育園",
      "capacity": "130",
      "acceptable_age": "0歳～5歳"
    }
  },
  {
    "name": "南船橋保育園",
    "lat": "35.679152",
    "lng": "139.99717",
    "details": {
      "number": "111",
      "address": "千葉県船橋市若松2-3-15",
      "phone_number": "047-401-5115",
      "type": "私立保育園",
      "capacity": "140",
      "acceptable_age": "0歳～5歳"
    }
  },
  {
    "name": "高根台ｸﾞﾘｰﾝｷﾃﾞｨ保育園",
    "lat": "35.732566",
    "lng": "140.03331",
    "details": {
      "number": "112",
      "address": "千葉県船橋市高根台2-10-5",
      "phone_number": "047-465-5900",
      "type": "私立保育園",
      "capacity": "78",
      "acceptable_age": "0歳～5歳"
    }
  },
  {
    "name": "アポロンの丘",
    "lat": "35.727684",
    "lng": "140.047038",
    "details": {
      "number": "113",
      "address": "千葉県船橋市習志野台2-59-22",
      "phone_number": "047-404-5427",
      "type": "私立保育園",
      "capacity": "48",
      "acceptable_age": "0歳～2歳"
    }
  },
  {
    "name": "リサ保育園",
    "lat": "35.703459",
    "lng": "139.960445",
    "details": {
      "number": "114",
      "address": "千葉県船橋市海神町南1-728",
      "phone_number": "047-404-5621",
      "type": "私立保育園",
      "capacity": "90",
      "acceptable_age": "0歳～5歳"
    }
  },
  {
    "name": "シーガル保育園",
    "lat": "35.713399",
    "lng": "140.021406",
    "details": {
      "number": "115",
      "address": "千葉県船橋市飯山満町2-1007-1",
      "phone_number": "047-404-7611",
      "type": "私立保育園",
      "capacity": "120",
      "acceptable_age": "0歳～5歳"
    }
  },
  {
    "name": "敬心ゆめ保育園",
    "lat": "35.700741",
    "lng": "140.009063",
    "details": {
      "number": "116",
      "address": "千葉県船橋市東船橋3-15-8",
      "phone_number": "047-411-5725",
      "type": "私立保育園",
      "capacity": "110",
      "acceptable_age": "0歳～5歳"
    }
  },
  {
    "name": "ゆいまーる保育園",
    "lat": "35.712589",
    "lng": "139.981796",
    "details": {
      "number": "117",
      "address": "千葉県船橋市北本町1-12-8",
      "phone_number": "047-424-7711",
      "type": "私立保育園",
      "capacity": "140",
      "acceptable_age": "0歳～5歳"
    }
  },
  {
    "name": "ナーサリー木の実",
    "lat": "35.72444",
    "lng": "140.062557",
    "details": {
      "number": "118",
      "address": "千葉県船橋市坪井東4-7-60",
      "phone_number": "047-497-8457",
      "type": "私立保育園",
      "capacity": "90",
      "acceptable_age": "0歳～5歳"
    }
  },
  {
    "name": "丸山旭保育園",
    "lat": "35.742816",
    "lng": "139.993656",
    "details": {
      "number": "119",
      "address": "千葉県船橋市丸山5-33-25",
      "phone_number": "047-438-3383",
      "type": "私立保育園",
      "capacity": "80",
      "acceptable_age": "0歳～5歳"
    }
  },
  {
    "name": "あまねの杜保育園",
    "lat": "35.722828",
    "lng": "139.971979",
    "details": {
      "number": "120",
      "address": "千葉県船橋市行田2-9-10",
      "phone_number": "047-401-5011",
      "type": "私立保育園",
      "capacity": "160",
      "acceptable_age": "0歳～5歳"
    }
  },
  {
    "name": "AIAI NURSERY宮本",
    "lat": "35.690598",
    "lng": "139.994815",
    "details": {
      "number": "121",
      "address": "千葉県船橋市宮本3-9-4",
      "phone_number": "047-401-0271",
      "type": "私立保育園",
      "capacity": "74",
      "acceptable_age": "0歳～5歳"
    }
  },
  {
    "name": "東船橋ちとせ保育園",
    "lat": "35.697064",
    "lng": "140.003747",
    "details": {
      "number": "122",
      "address": "千葉県船橋市東船橋1-16-25",
      "phone_number": "047-423-5717",
      "type": "私立保育園",
      "capacity": "100",
      "acceptable_age": "0歳～5歳"
    }
  },
  {
    "name": "船橋どろんこ保育園",
    "lat": "35.705541",
    "lng": "139.986135",
    "details": {
      "number": "123",
      "address": "千葉県船橋市本町6-8-9",
      "phone_number": "047-429-8140",
      "type": "私立保育園",
      "capacity": "110",
      "acceptable_age": "0歳～5歳"
    }
  },
  {
    "name": "グローバルキッズ コトニア西船橋園",
    "lat": "35.712171",
    "lng": "139.948472",
    "details": {
      "number": "124",
      "address": "千葉県船橋市東中山1-19-13",
      "phone_number": "047-336-6661",
      "type": "私立保育園",
      "capacity": "90",
      "acceptable_age": "0歳～5歳"
    }
  },
  {
    "name": "船橋ハーモニー保育園",
    "lat": "35.703563",
    "lng": "140.033412",
    "details": {
      "number": "125",
      "address": "千葉県船橋市前原東5-8-8",
      "phone_number": "047-429-8802",
      "type": "私立保育園",
      "capacity": "105",
      "acceptable_age": "0歳～5歳"
    }
  },
  {
    "name": "ミアヘルサ保育園ひびき新船橋",
    "lat": "35.709779",
    "lng": "139.979323",
    "details": {
      "number": "126",
      "address": "千葉県船橋市海神3-26-30",
      "phone_number": "047-401-3875",
      "type": "私立保育園",
      "capacity": "100",
      "acceptable_age": "0歳～5歳"
    }
  },
  {
    "name": "えがおの森保育園・にしふなばし",
    "lat": "35.707806",
    "lng": "139.954668",
    "details": {
      "number": "127",
      "address": "千葉県船橋市本郷町430",
      "phone_number": "047-332-0581",
      "type": "私立保育園",
      "capacity": "92",
      "acceptable_age": "0歳～5歳"
    }
  },
  {
    "name": "薬園台・学びの保育園",
    "lat": "35.710254",
    "lng": "140.039104",
    "details": {
      "number": "128",
      "address": "千葉県船橋市薬円台5-6-7",
      "phone_number": "047-402-4680",
      "type": "私立保育園",
      "capacity": "71",
      "acceptable_age": "0歳～5歳"
    }
  },
  {
    "name": "AIAI NURSERY北習志野",
    "lat": "35.721374",
    "lng": "140.041695",
    "details": {
      "number": "129",
      "address": "千葉県船橋市西習志野3-27-7",
      "phone_number": "047-404-7771",
      "type": "私立保育園",
      "capacity": "56",
      "acceptable_age": "0歳～5歳"
    }
  },
  {
    "name": "船橋光の子保育園",
    "lat": "35.743569",
    "lng": "139.991173",
    "details": {
      "number": "130",
      "address": "千葉県船橋市丸山1-3-3",
      "phone_number": "047-406-7055",
      "type": "私立保育園",
      "capacity": "50",
      "acceptable_age": "0歳～5歳"
    }
  },
  {
    "name": "船橋法典すきっぷ保育園",
    "lat": "35.729287",
    "lng": "139.963616",
    "details": {
      "number": "131",
      "address": "千葉県船橋市藤原1-3-10",
      "phone_number": "047-382-5917",
      "type": "私立保育園",
      "capacity": "65",
      "acceptable_age": "0歳～5歳"
    }
  },
  {
    "name": "AIAI NURSERY船橋法典",
    "lat": "35.729957",
    "lng": "139.970874",
    "details": {
      "number": "132",
      "address": "千葉県船橋市上山町1-223-4",
      "phone_number": "047-382-5357",
      "type": "私立保育園",
      "capacity": "60",
      "acceptable_age": "0歳～5歳"
    }
  },
  {
    "name": "AIAI NURSERY西船橋",
    "lat": "35.709906",
    "lng": "139.95698",
    "details": {
      "number": "133",
      "address": "千葉県船橋市西船5-26-25",
      "phone_number": "047-307-9202",
      "type": "私立保育園",
      "capacity": "60",
      "acceptable_age": "0歳～5歳"
    }
  },
  {
    "name": "にじいろ保育園薬円台",
    "lat": "35.707902",
    "lng": "140.043218",
    "details": {
      "number": "134",
      "address": "千葉県船橋市薬円台1-24-1",
      "phone_number": "047-402-4033",
      "type": "私立保育園",
      "capacity": "77",
      "acceptable_age": "0歳～5歳"
    }
  },
  {
    "name": "塚田ここわ保育園",
    "lat": "35.719131",
    "lng": "139.981168",
    "details": {
      "number": "135",
      "address": "千葉県船橋市北本町2-41-20",
      "phone_number": "047-407-0243",
      "type": "私立保育園",
      "capacity": "60",
      "acceptable_age": "0歳～5歳"
    }
  },
  {
    "name": "ブルゥミング保育園",
    "lat": "35.699281",
    "lng": "139.991789",
    "details": {
      "number": "136",
      "address": "千葉県船橋市宮本1-8-11",
      "phone_number": "047-409-9996",
      "type": "私立保育園",
      "capacity": "90",
      "acceptable_age": "0歳～5歳"
    }
  },
  {
    "name": "そらまめ保育園　新船橋",
    "lat": "35.70988",
    "lng": "139.982783",
    "details": {
      "number": "137",
      "address": "千葉県船橋市北本町1-17-22",
      "phone_number": "047-455-8682",
      "type": "私立保育園",
      "capacity": "90",
      "acceptable_age": "0歳～5歳"
    }
  },
  {
    "name": "まなびの森保育園飯山満",
    "lat": "35.711016",
    "lng": "140.027951",
    "details": {
      "number": "138",
      "address": "千葉県船橋市二宮1-71-30",
      "phone_number": "047-466-7788",
      "type": "私立保育園",
      "capacity": "60",
      "acceptable_age": "0歳～5歳"
    }
  },
  {
    "name": "グリュック保育園",
    "lat": "35.698885",
    "lng": "140.003752",
    "details": {
      "number": "139",
      "address": "千葉県船橋市東船橋1-26-10",
      "phone_number": "047-424-3741",
      "type": "私立保育園",
      "capacity": "60",
      "acceptable_age": "0歳～5歳"
    }
  },
  {
    "name": "ゆめのもり保育園",
    "lat": "35.697813",
    "lng": "140.024984",
    "details": {
      "number": "140",
      "address": "千葉県船橋市前原西7-1-19",
      "phone_number": "047-406-4700",
      "type": "私立保育園",
      "capacity": "60",
      "acceptable_age": "0歳～5歳"
    }
  },
  {
    "name": "船橋どろんこ保育園　分園",
    "lat": "35.70142",
    "lng": "139.988925",
    "details": {
      "number": "141",
      "address": "千葉県船橋市本町5-18-25",
      "phone_number": "047-409-2871",
      "type": "私立保育園",
      "capacity": "30",
      "acceptable_age": "0歳～2歳"
    }
  },
  {
    "name": "太陽の子　塚田保育園",
    "lat": "35.723303",
    "lng": "139.98113",
    "details": {
      "number": "142",
      "address": "千葉県船橋市行田町352-5",
      "phone_number": "047-406-6006",
      "type": "私立保育園",
      "capacity": "75",
      "acceptable_age": "0歳～5歳"
    }
  },
  {
    "name": "まなびの森保育園　東船橋",
    "lat": "35.6981856",
    "lng": "140.002607",
    "details": {
      "number": "143",
      "address": "千葉県船橋市東船橋1-18-12",
      "phone_number": "047-411-1155",
      "type": "私立保育園",
      "capacity": "80",
      "acceptable_age": "0歳～5歳"
    }
  },
  {
    "name": "りんごのき保育園",
    "lat": "35.69834",
    "lng": "140.004138",
    "details": {
      "number": "144",
      "address": "千葉県船橋市東船橋1-24-15 グレイス東船橋1階",
      "phone_number": "047-411-8054",
      "type": "私立保育園",
      "capacity": "40",
      "acceptable_age": "0歳～5歳"
    }
  },
  {
    "name": "新船橋ここわ保育園",
    "lat": "35.711326",
    "lng": "139.970289",
    "details": {
      "number": "145",
      "address": "千葉県船橋市海神5-29-61",
      "phone_number": "047-402-6431",
      "type": "私立保育園",
      "capacity": "60",
      "acceptable_age": "0歳～5歳"
    }
  },
  {
    "name": "西船橋すきっぷ保育園",
    "lat": "35.710228",
    "lng": "139.959828",
    "details": {
      "number": "146",
      "address": "千葉県船橋市西船4-12-20",
      "phone_number": "047-401-6251",
      "type": "私立保育園",
      "capacity": "65",
      "acceptable_age": "0歳～5歳"
    }
  },
  {
    "name": "ラブキッズ",
    "lat": "35.718399",
    "lng": "139.970745",
    "details": {
      "number": "147",
      "address": "千葉県船橋市行田3-2-21",
      "phone_number": "047-429-1212",
      "type": "私立保育園",
      "capacity": "70",
      "acceptable_age": "0歳～5歳"
    }
  },
  {
    "name": "ゆめわかば保育園",
    "lat": "35.697778",
    "lng": "140.031116",
    "details": {
      "number": "148",
      "address": "千葉県船橋市前原東2-18-41",
      "phone_number": "047-406-4421",
      "type": "私立保育園",
      "capacity": "70",
      "acceptable_age": "0歳～5歳"
    }
  },
  {
    "name": "たんぽぽ西船橋駅前保育園",
    "lat": "35.705005",
    "lng": "139.957656",
    "details": {
      "number": "149",
      "address": "千葉県船橋市印内町631-1",
      "phone_number": "047-420-3017",
      "type": "私立保育園",
      "capacity": "80",
      "acceptable_age": "0歳～5歳"
    }
  },
  {
    "name": "たんぽぽ海神町南保育園",
    "lat": "35.702239",
    "lng": "139.963117",
    "details": {
      "number": "150",
      "address": "千葉県船橋市海神町南1-1428-20",
      "phone_number": "047-495-6200",
      "type": "私立保育園",
      "capacity": "60",
      "acceptable_age": "0歳～5歳"
    }
  },
  {
    "name": "船橋くれよん保育園",
    "lat": "35.729304",
    "lng": "140.059966",
    "details": {
      "number": "151",
      "address": "千葉県船橋市坪井東2-13-27",
      "phone_number": "047-460-9926",
      "type": "私立保育園",
      "capacity": "60",
      "acceptable_age": "1歳～5歳"
    }
  },
  {
    "name": "Milky　Way　International　Nursery　School　新船橋校",
    "lat": "35.713935",
    "lng": "139.986597",
    "details": {
      "number": "152",
      "address": "千葉県船橋市夏見3-20-11",
      "phone_number": "047-455-3225",
      "type": "私立保育園",
      "capacity": "80",
      "acceptable_age": "0歳～5歳"
    }
  },
  {
    "name": "西船橋雲母保育園",
    "lat": "35.708233",
    "lng": "139.953638",
    "details": {
      "number": "153",
      "address": "千葉県船橋市本郷町456-1-2F",
      "phone_number": "047-709-4300",
      "type": "私立保育園",
      "capacity": "60",
      "acceptable_age": "0歳～5歳"
    }
  },
  {
    "name": "そらまめ保育園　西船橋",
    "lat": "35.706229",
    "lng": "139.968787",
    "details": {
      "number": "154",
      "address": "千葉県船橋市海神6-16-11",
      "phone_number": "047-497-8285",
      "type": "私立保育園",
      "capacity": "75",
      "acceptable_age": "0歳～5歳"
    }
  },
  {
    "name": "まなびの森保育園　船橋競馬場駅前",
    "lat": "35.689601",
    "lng": "139.997138",
    "details": {
      "number": "155",
      "address": "千葉県船橋市宮本9-1-11",
      "phone_number": "047-402-4402",
      "type": "私立保育園",
      "capacity": "140",
      "acceptable_age": "0歳～5歳"
    }
  },
  {
    "name": "ポポラー千葉新船橋園",
    "lat": "35.711953",
    "lng": "139.98156",
    "details": {
      "number": "156",
      "address": "千葉県船橋市北本町1-12-17-2F",
      "phone_number": "047-460-3040",
      "type": "私立保育園",
      "capacity": "50",
      "acceptable_age": "0歳～5歳"
    }
  },
  {
    "name": "船橋うめのき保育園",
    "lat": "35.730693",
    "lng": "139.9703",
    "details": {
      "number": "157",
      "address": "千葉県船橋市上山町1-225-3",
      "phone_number": "047-710-5431",
      "type": "私立保育園",
      "capacity": "60",
      "acceptable_age": "0歳～5歳"
    }
  },
  {
    "name": "ミアヘルサ保育園ひびき新船橋北",
    "lat": "35.713191",
    "lng": "139.980005",
    "details": {
      "number": "158",
      "address": "千葉県船橋市山手1-1-11",
      "phone_number": "047-498-9370",
      "type": "私立保育園",
      "capacity": "75",
      "acceptable_age": "0歳～5歳"
    }
  },
  {
    "name": "船橋こどもの木保育園",
    "lat": "35.725598",
    "lng": "140.035064",
    "details": {
      "number": "159",
      "address": "千葉県船橋市西習志野2-6-1",
      "phone_number": "047-468-8207",
      "type": "私立保育園",
      "capacity": "60",
      "acceptable_age": "0歳～5歳"
    }
  },
  {
    "name": "船橋馬込沢雲母保育園",
    "lat": "35.736267",
    "lng": "139.980422",
    "details": {
      "number": "160",
      "address": "千葉県船橋市上山町2-487-1",
      "phone_number": "047-430-2424",
      "type": "私立保育園",
      "capacity": "60",
      "acceptable_age": "0歳～5歳"
    }
  },
  {
    "name": "京進のほいくえんＨＯＰＰＡ前原西",
    "lat": "35.698527",
    "lng": "140.015559",
    "details": {
      "number": "161",
      "address": "千葉県船橋市前原西4-12-15",
      "phone_number": "047-489-5260",
      "type": "私立保育園",
      "capacity": "70",
      "acceptable_age": "0歳～5歳"
    }
  },
  {
    "name": "ここみ保育園",
    "lat": "35.70027",
    "lng": "139.980336",
    "details": {
      "number": "162",
      "address": "千葉県船橋市海神1-8-9",
      "phone_number": "047-432-2904",
      "type": "私立保育園",
      "capacity": "40",
      "acceptable_age": "0歳～5歳"
    }
  },
  {
    "name": "共同保育所子どもの家",
    "lat": "35.702557",
    "lng": "139.990266",
    "details": {
      "number": "163",
      "address": "千葉県船橋市本町5-15-9",
      "phone_number": "047-423-1770",
      "type": "私立保育園",
      "capacity": "50",
      "acceptable_age": "0歳～5歳"
    }
  },
  {
    "name": "ベル・ナーサリー塚田",
    "lat": "35.719061",
    "lng": "139.978201",
    "details": {
      "number": "164",
      "address": "千葉県船橋市行田1-50-31",
      "phone_number": "047-401-3930",
      "type": "私立保育園",
      "capacity": "150",
      "acceptable_age": "0歳～5歳"
    }
  },
  {
    "name": "東船橋雲母保育園",
    "lat": "35.702392",
    "lng": "140.006703",
    "details": {
      "number": "165",
      "address": "千葉県船橋市東船橋3-36-13",
      "phone_number": "047-460-5130",
      "type": "私立保育園",
      "capacity": "60",
      "acceptable_age": "0歳～5歳"
    }
  }
]
