[{"name": "\u5bae\u672c\u7b2c\u4e00\u4fdd\u80b2\u5712", "lat": 35.6979334, "lng": 139.9956694, "details": {"address": "\u3012273-0003\u5343\u8449\u770c\u8239\u6a4b\u5e02\u5bae\u672c6-26-27", "phone_number": "047-442-5639"}}, {"name": "\u5bae\u672c\u7b2c\u4e8c\u4fdd\u80b2\u5712", "lat": 35.691472, "lng": 140.0001182, "details": {"address": "\u3012273-0003\u5343\u8449\u770c\u8239\u6a4b\u5e02\u5bae\u672c8-9-10", "phone_number": "047-423-1304"}}, {"name": "\u82e5\u677e\u4fdd\u80b2\u5712", "lat": 35.6794751, "lng": 139.9943675, "details": {"address": "\u3012273-0013\u5343\u8449\u770c\u8239\u6a4b\u5e02\u82e5\u677e2-6-3", "phone_number": "047-433-4041"}}, {"name": "\u6e4a\u753a\u4fdd\u80b2\u5712", "lat": 35.6928239, "lng": 139.9851805, "details": {"address": "\u3012273-0011\u5343\u8449\u770c\u8239\u6a4b\u5e02\u6e4a\u753a1-16-23", "phone_number": "047-431-4961"}}, {"name": "\u5343\u9ce5\u4fdd\u80b2\u5712", "lat": 35.6980868, "lng": 139.9770171, "details": {"address": "\u3012273-0004\u5343\u8449\u770c\u8239\u6a4b\u5e02\u5357\u672c\u753a13-1", "phone_number": "047-431-5061"}}, {"name": "\u4e2d\u592e\u4fdd\u80b2\u5712", "lat": 35.6998991, "lng": 139.9889845, "details": {"address": "\u3012273-0005\u5343\u8449\u770c\u8239\u6a4b\u5e02\u672c\u753a4-17-21", "phone_number": "047-422-4762"}}, {"name": "\u672c\u753a\u4fdd\u80b2\u5712", "lat": 35.70517, "lng": 139.9874208, "details": {"address": "\u3012273-0005\u5343\u8449\u770c\u8239\u6a4b\u5e02\u672c\u753a6-7-18", "phone_number": "047-424-7011"}}, {"name": "\u6d77\u795e\u7b2c\u4e00\u4fdd\u80b2\u5712", "lat": 35.7043217, "lng": 139.9815509, "details": {"address": "\u3012273-0021\u5343\u8449\u770c\u8239\u6a4b\u5e02\u6d77\u795e2-13-25", "phone_number": "047-422-2462"}}, {"name": "\u6d77\u795e\u7b2c\u4e8c\u4fdd\u80b2\u5712", "lat": 35.7000989, "lng": 139.9812819, "details": {"address": "\u3012273-0005\u5343\u8449\u770c\u8239\u6a4b\u5e02\u672c\u753a1-23-7", "phone_number": "047-435-0783"}}, {"name": "\u897f\u8239\u4fdd\u80b2\u5712", "lat": 35.7139354, "lng": 139.9581998, "details": {"address": "\u3012273-0031\u5343\u8449\u770c\u8239\u6a4b\u5e02\u897f\u82396-1-24", "phone_number": "047-333-8187"}}, {"name": "\u672c\u4e2d\u5c71\u4fdd\u80b2\u5712", "lat": 35.7072309, "lng": 139.9426067, "details": {"address": "\u3012273-0035\u5343\u8449\u770c\u8239\u6a4b\u5e02\u672c\u4e2d\u5c715-6-1", "phone_number": "047-333-6451"}}, {"name": "\u82e5\u8449\u4fdd\u80b2\u5712", "lat": 35.7440446, "lng": 139.9880734, "details": {"address": "\u3012273-0047\u5343\u8449\u770c\u8239\u6a4b\u5e02\u85e4\u539f7-41-1", "phone_number": "047-439-0472"}}, {"name": "\u884c\u7530\u4fdd\u80b2\u5712", "lat": 35.7169455, "lng": 139.9696164, "details": {"address": "\u3012273-0044\u5343\u8449\u770c\u8239\u6a4b\u5e02\u884c\u75303-1-2", "phone_number": "047-439-5000"}}, {"name": "\u590f\u898b\u7b2c\u4e00\u4fdd\u80b2\u5712", "lat": 35.7129007, "lng": 139.9920202, "details": {"address": "\u3012273-0865\u5343\u8449\u770c\u8239\u6a4b\u5e02\u590f\u898b4-10-26", "phone_number": "047-422-5198"}}, {"name": "\u590f\u898b\u7b2c\u4e8c\u4fdd\u80b2\u5712", "lat": 35.722853, "lng": 139.9920667, "details": {"address": "\u3012273-0866\u5343\u8449\u770c\u8239\u6a4b\u5e02\u590f\u898b\u53f04-1-1", "phone_number": "047-439-6231"}}, {"name": "\u9ad8\u6839\u4fdd\u80b2\u5712", "lat": 35.7318855, "lng": 140.0268915, "details": {"address": "\u3012274-0814\u5343\u8449\u770c\u8239\u6a4b\u5e02\u65b0\u9ad8\u68394-19-2", "phone_number": "047-463-1418"}}, {"name": "\u91d1\u6749\u53f0\u4fdd\u80b2\u5712", "lat": 35.7352168, "lng": 140.0113724, "details": {"address": "\u3012273-0852\u5343\u8449\u770c\u8239\u6a4b\u5e02\u91d1\u6749\u53f01-1-6", "phone_number": "047-447-0022"}}, {"name": "\u4e8c\u548c\u4fdd\u80b2\u5712", "lat": 35.7515137, "lng": 140.0253584, "details": {"address": "\u3012274-0805\u5343\u8449\u770c\u8239\u6a4b\u5e02\u4e8c\u548c\u67715-50-1", "phone_number": "047-447-0801"}}, {"name": "\u4e09\u5c71\u4fdd\u80b2\u5712", "lat": 35.701377, "lng": 140.0580441, "details": {"address": "\u3012274-0072\u5343\u8449\u770c\u8239\u6a4b\u5e02\u4e09\u5c716-26-26", "phone_number": "047-476-2701"}}, {"name": "\u4e8c\u5bae\u4fdd\u80b2\u5712", "lat": 35.7027062, "lng": 140.0254386, "details": {"address": "\u3012274-0825\u5343\u8449\u770c\u8239\u6a4b\u5e02\u524d\u539f\u897f6-1-12", "phone_number": "047-472-1097"}}, {"name": "\u7fd2\u5fd7\u91ce\u53f0\u7b2c\u4e00\u4fdd\u80b2\u5712", "lat": 35.7233446, "lng": 140.0461733, "details": {"address": "\u3012274-0063\u5343\u8449\u770c\u8239\u6a4b\u5e02\u7fd2\u5fd7\u91ce\u53f02-50-3", "phone_number": "047-465-4124"}}, {"name": "\u7fd2\u5fd7\u91ce\u53f0\u7b2c\u4e8c\u4fdd\u80b2\u5712", "lat": 35.7263674, "lng": 140.0500546, "details": {"address": "\u3012274-0063\u5343\u8449\u770c\u8239\u6a4b\u5e02\u7fd2\u5fd7\u91ce\u53f06-7-1", "phone_number": "047-464-3818"}}, {"name": "\u9ad8\u6839\u53f0\u4fdd\u80b2\u5712", "lat": 35.7330412, "lng": 140.0322415, "details": {"address": "\u3012274-0065\u5343\u8449\u770c\u8239\u6a4b\u5e02\u9ad8\u6839\u53f02-2-2", "phone_number": "047-466-2611"}}, {"name": "\u7dd1\u53f0\u4fdd\u80b2\u5712", "lat": 35.7285377, "lng": 140.0138886, "details": {"address": "\u3012274-0818\u5343\u8449\u770c\u8239\u6a4b\u5e02\u7dd1\u53f02-4-11", "phone_number": "047-447-9122"}}, {"name": "\u829d\u5c71\u7b2c\u4e00\u4fdd\u80b2\u5712", "lat": 35.7178372, "lng": 140.0194626, "details": {"address": "\u3012274-0816\u5343\u8449\u770c\u8239\u6a4b\u5e02\u829d\u5c713-10-4", "phone_number": "047-462-7575"}}, {"name": "\u5c0f\u5ba4\u4fdd\u80b2\u5712", "lat": 35.7880929, "lng": 140.0760014, "details": {"address": "\u3012270-1471\u5343\u8449\u770c\u8239\u6a4b\u5e02\u5c0f\u5ba4\u753a3305", "phone_number": "047-457-1717"}}, {"name": "\u6d5c\u753a\u4fdd\u80b2\u5712", "lat": 35.6912348, "lng": 139.9894156, "details": {"address": "\u3012273-0012\u5343\u8449\u770c\u8239\u6a4b\u5e02\u6d5c\u753a1-1-1", "phone_number": "047-431-3262"}}, {"name": "\u3081\u3050\u307f\u4fdd\u80b2\u5712", "lat": 35.7123211, "lng": 140.047, "details": {"address": "\u3012274-0077\u3000\u8239\u6a4b\u5e02\u85ac\u5186\u53f04-6-1", "phone_number": "\u96fb\u8a71\uff1a047-466-0566 FAX\uff1a047-463-1881"}}, {"name": "\u4e2d\u5c71\u3042\u3051\u307c\u306e\u4fdd\u80b2\u5712", "lat": 35.7132486, "lng": 139.9422791, "details": {"address": "\u3012273-0035\u3000\u8239\u6a4b\u5e02\u672c\u4e2d\u5c713-19-3", "phone_number": "\u96fb\u8a71\uff1a047-334-9950 FAX\uff1a047-334-8861"}}, {"name": "\u3072\u3070\u308a\u4fdd\u80b2\u5712", "lat": 35.7353628, "lng": 140.0400935, "details": {"address": "\u3012274-0064\u3000\u8239\u6a4b\u5e02\u677e\u304c\u4e181-33-4", "phone_number": "\u96fb\u8a71\uff1a047-466-5915 FAX\uff1a047-466-5918"}}, {"name": "\u6749\u306e\u5b50\u4fdd\u80b2\u5712", "lat": 35.7295772, "lng": 140.0228317, "details": {"address": "\u3012274-0814\u3000\u8239\u6a4b\u5e02\u65b0\u9ad8\u68393-8-1", "phone_number": "\u96fb\u8a71\uff1a047-465-2336 FAX\uff1a047-461-7260"}}, {"name": "\u3057\u3089\u3086\u308a\u4fdd\u80b2\u5712", "lat": 35.7206835, "lng": 139.984086, "details": {"address": "\u3012273-0864\u3000\u8239\u6a4b\u5e02\u5317\u672c\u753a2-47-7", "phone_number": "\u96fb\u8a71\uff1a047-422-5051 FAX\uff1a047-422-0415"}}, {"name": "\u3042\u3059\u306a\u308d\u4fdd\u80b2\u5712", "lat": 35.7419776, "lng": 140.0149078, "details": {"address": "\u3012274-0806\u3000\u8239\u6a4b\u5e02\u4e8c\u548c\u897f2-6-1", "phone_number": "\u96fb\u8a71\uff1a047-447-0023 FAX\uff1a047-447-0023"}}, {"name": "\u305f\u304b\u306d\u53f0\u30d9\u30d3\u30fc\u30db\u30fc\u30e0", "lat": 35.731805, "lng": 140.0303964, "details": {"address": "\u3012274-0065\u3000\u8239\u6a4b\u5e02\u9ad8\u6839\u53f01-9-23-201", "phone_number": "\u96fb\u8a71\uff1a047-465-1100 FAX\uff1a047-465-1100"}}, {"name": "\u307e\u3053\u3068\u4fdd\u80b2\u5712", "lat": 35.76504750000001, "lng": 140.0555512, "details": {"address": "\u3012274-0056\u3000\u8239\u6a4b\u5e02\u795e\u4fdd\u753a275-34", "phone_number": "\u96fb\u8a71\uff1a047-457-1685 FAX\uff1a047-457-1687"}}, {"name": "\u4e09\u54b2\u5c0f\u9ce9\u4fdd\u80b2\u5712", "lat": 35.7537096, "lng": 140.0363527, "details": {"address": "\u3012274-0812\u3000\u8239\u6a4b\u5e02\u4e09\u54b23-6-2", "phone_number": "\u96fb\u8a71\uff1a047-447-7612 FAX\uff1a047-447-7667"}}, {"name": "\u3066\u307e\u308a\u4fdd\u80b2\u5712", "lat": 35.7387913, "lng": 139.9794495, "details": {"address": "\u3012273-0047\u3000\u8239\u6a4b\u5e02\u85e4\u539f5-4-39", "phone_number": "\u96fb\u8a71\uff1a047-438-0073 FAX\uff1a047-438-0039"}}, {"name": "\u307f\u3069\u308a\u4fdd\u80b2\u5712", "lat": 35.7031707, "lng": 139.9993533, "details": {"address": "\u3012273-0001\u3000\u8239\u6a4b\u5e02\u5e02\u58344-12-3", "phone_number": "\u96fb\u8a71\uff1a047-424-4152 FAX\uff1a047-423-2130"}}, {"name": "\u4e09\u5c71\u3064\u304f\u3057\u4fdd\u80b2\u5712", "lat": 35.6934253, "lng": 140.0625981, "details": {"address": "\u3012274-0072\u3000\u8239\u6a4b\u5e02\u4e09\u5c719-31-7", "phone_number": "\u96fb\u8a71\uff1a047-473-4435 FAX\uff1a047-493-5272"}}, {"name": "\u30a2\u30f3\u30c7\u30eb\u30bb\u30f3\u4fdd\u80b2\u5712", "lat": 35.7275016, "lng": 140.0521695, "details": {"address": "\u3012274-0063\u3000\u8239\u6a4b\u5e02\u7fd2\u5fd7\u91ce\u53f07-8-21", "phone_number": "\u96fb\u8a71\uff1a047-462-8111 FAX\uff1a047-462-8112"}}, {"name": "\u3084\u307e\u3073\u3053\u4fdd\u80b2\u5712", "lat": 35.7606839, "lng": 140.0222744, "details": {"address": "\u3012274-0807\u3000\u8239\u6a4b\u5e02\u54b2\u304c\u4e182-11-5", "phone_number": "\u96fb\u8a71\uff1a047-449-0225 FAX\uff1a047-449-0226"}}, {"name": "\u5f25\u751f\u4fdd\u80b2\u5712", "lat": 35.7109802, "lng": 139.9453477, "details": {"address": "\u3012273-0035\u3000\u8239\u6a4b\u5e02\u672c\u4e2d\u5c713-4-18", "phone_number": "\u96fb\u8a71\uff1a047-332-7280 FAX\uff1a047-332-1033"}}, {"name": "\u304b\u3082\u3081\u4fdd\u80b2\u5712", "lat": 35.7272164, "lng": 140.0257332, "details": {"address": "\u3012274-0814\u3000\u8239\u6a4b\u5e02\u65b0\u9ad8\u68396-43-3", "phone_number": "\u96fb\u8a71\uff1a047-466-5553 FAX\uff1a047-465-5530"}}, {"name": "\u304b\u3082\u3081\u4fdd\u80b2\u5712 \u829d\u5c71\u5206\u5712", "lat": 35.716145, "lng": 140.0206, "details": {"address": "\u3012274-0816\u3000\u8239\u6a4b\u5e02\u829d\u5c713-10-8(\u8239\u6a4b\u5e02\u829d\u5c71\u51fa\u5f35\u62402F)", "phone_number": "\u96fb\u8a71\uff1a047-456-4353 FAX\uff1a047-456-4354"}}, {"name": "\u524d\u539f\u4fdd\u80b2\u5712", "lat": 35.703138, "lng": 140.0269068, "details": {"address": "\u3012274-0825\u3000\u8239\u6a4b\u5e02\u524d\u539f\u897f8-23-5", "phone_number": "\u96fb\u8a71\uff1a047-465-2429 FAX\uff1a047-469-6423"}}, {"name": "\u30d9\u30eb\u30fb\u30ca\u30fc\u30b5\u30ea\u30fc", "lat": 35.7211473, "lng": 139.9812273, "details": {"address": "\u3012273-0044\u3000\u8239\u6a4b\u5e02\u884c\u75301-49-1", "phone_number": "\u96fb\u8a71\uff1a047-430-0086 FAX\uff1a047-430-0034"}}, {"name": "\u30a2\u30f3\u30c7\u30eb\u30bb\u30f3\u7b2c\u4e8c\u4fdd\u80b2\u5712", "lat": 35.7188662, "lng": 140.0543679, "details": {"address": "\u3012274-0063\u3000\u8239\u6a4b\u5e02\u7fd2\u5fd7\u91ce\u53f05-43-3", "phone_number": "\u96fb\u8a71\uff1a047-468-4686 FAX\uff1a047-468-4685"}}, {"name": "\u897f\u8239\u307f\u3069\u308a\u4fdd\u80b2\u5712", "lat": 35.7058632, "lng": 139.9634397, "details": {"address": "\u3012273-0031\u3000\u8239\u6a4b\u5e02\u897f\u82391-21-50", "phone_number": "\u96fb\u8a71\uff1a047-435-4152 FAX\uff1a047-435-8590"}}, {"name": "\u30a2\u30ea\u30b9\u306a\u304b\u3088\u3057\u4fdd\u80b2\u5712", "lat": 35.7138845, "lng": 139.9703142, "details": {"address": "\u3012273-0031\u3000\u8239\u6a4b\u5e02\u897f\u82392-29-28", "phone_number": "\u96fb\u8a71\uff1a047-436-1212 FAX\uff1a047-436-1211"}}, {"name": "\u30ed\u30fc\u30bf\u30b9\u4fdd\u80b2\u5712", "lat": 35.74046200000001, "lng": 139.9819027, "details": {"address": "\u3012273-0047\u3000\u8239\u6a4b\u5e02\u85e4\u539f5-23-2", "phone_number": "\u96fb\u8a71\uff1a047-439-6663 FAX\uff1a047-439-6657"}}, {"name": "\u6d77\u795e\u5357\u4fdd\u80b2\u5712", "lat": 35.7001878, "lng": 139.9676338, "details": {"address": "\u3012273-0024\u3000\u8239\u6a4b\u5e02\u6d77\u795e\u753a\u53571-1627-2", "phone_number": "\u96fb\u8a71\uff1a047-411-6543 FAX\uff1a047-436-6057"}}, {"name": "\u524d\u539f\u3072\u307e\u308f\u308a\u4fdd\u80b2\u5712", "lat": 35.69672610000001, "lng": 140.0164377, "details": {"address": "\u3012274-0825\u3000\u8239\u6a4b\u5e02\u524d\u539f\u897f4-18-19", "phone_number": "\u96fb\u8a71\uff1a047-474-7788 FAX\uff1a047-411-5655"}}, {"name": "\u8239\u6a4b\u3042\u304a\u305e\u3089\u4fdd\u80b2\u5712", "lat": 35.7530616, "lng": 140.0324236, "details": {"address": "\u3012274-0812\u3000\u8239\u6a4b\u5e02\u4e09\u54b23-12-55", "phone_number": "\u96fb\u8a71\uff1a047-407-9870 FAX\uff1a047-407-9875"}}, {"name": "\u8239\u6a4b\u3042\u304a\u305e\u3089\u4fdd\u80b2\u5712 \u5206\u5712", "lat": 35.755483, "lng": 140.022931, "details": {"address": "\u3012274-0805\u3000\u8239\u6a4b\u5e02\u4e8c\u548c\u67716-16-10\u3000\u30a8\u30d0\u30e9\u30d3\u30eb2F", "phone_number": "\u96fb\u8a71\uff1a047-440-8977 FAX\uff1a047-440-8978"}}, {"name": "\u30d7\u30ec\u30b9\u30af\u30fc\u30eb\u30fb\u30d9\u30eb", "lat": 35.7093011, "lng": 139.97493, "details": {"address": "\u3012273-0021\u3000\u8239\u6a4b\u5e02\u6d77\u795e4-23-16", "phone_number": "\u96fb\u8a71\uff1a047-410-0311 FAX\uff1a047-410-0312"}}, {"name": "\u590f\u898b\u53f0\u4fdd\u80b2\u5712", "lat": 35.721378, "lng": 139.9964988, "details": {"address": "\u3012273-0866\u3000\u8239\u6a4b\u5e02\u590f\u898b\u53f02-16-1", "phone_number": "\u96fb\u8a71\uff1a047-429-7231 FAX\uff1a047-439-5963"}}, {"name": "\u307f\u305d\u3089\u4fdd\u80b2\u5712", "lat": 35.7144269, "lng": 139.9543249, "details": {"address": "\u3012273-0036\u3000\u8239\u6a4b\u5e02\u6771\u4e2d\u5c712-1-20", "phone_number": "\u96fb\u8a71\uff1a047-302-2505 FAX\uff1a047-302-2506"}}, {"name": "\u3055\u304f\u3089\u4fdd\u80b2\u5712", "lat": 35.70966629999999, "lng": 139.9502143, "details": {"address": "\u3012273-0034\u3000\u8239\u6a4b\u5e02\u4e8c\u5b50\u753a474", "phone_number": "\u96fb\u8a71\uff1a047-302-8301 FAX\uff1a047-333-3779"}}, {"name": "\u5370\u5185\u4fdd\u80b2\u5712", "lat": 35.7148556, "lng": 139.9649146, "details": {"address": "\u3012273-0039\u3000\u8239\u6a4b\u5e02\u5370\u51852-2-31", "phone_number": "\u96fb\u8a71\uff1a047-433-8368 FAX\uff1a047-433-8378"}}, {"name": "\u30af\u30af\u30eb\u306a\u304b\u3088\u3057\u4fdd\u80b2\u5712", "lat": 35.7090598, "lng": 139.9879141, "details": {"address": "\u3012273-0865\u3000\u8239\u6a4b\u5e02\u590f\u898b2-11-43", "phone_number": "\u96fb\u8a71\uff1a047-424-0101 FAX\uff1a047-424-0007"}}, {"name": "\u306a\u306a\u3044\u308d\u4fdd\u80b2\u5712", "lat": 35.7223285, "lng": 139.9779741, "details": {"address": "\u3012273-0044\u3000\u8239\u6a4b\u5e02\u884c\u75301-39-5", "phone_number": "\u96fb\u8a71\uff1a047-407-1201 FAX\uff1a047-407-1203"}}, {"name": "\u307e\u3053\u3068\u4fdd\u80b2\u5712 \u5206\u5712", "lat": 35.7248649, "lng": 140.0499336, "details": {"address": "\u3012274-0063\u3000\u8239\u6a4b\u5e02\u7fd2\u5fd7\u91ce\u53f02-73-9", "phone_number": "\u96fb\u8a71\uff1a047-465-0230 FAX\uff1a047-465-0230"}}, {"name": "\u30ed\u30fc\u30bc\u30f3\u304b\u307f\u3084\u307e\u4fdd\u80b2\u5712", "lat": 35.732562, "lng": 139.9744827, "details": {"address": "\u3012273-0046\u3000\u8239\u6a4b\u5e02\u4e0a\u5c71\u753a2-288-1", "phone_number": "\u96fb\u8a71\uff1a047-406-6010 FAX\uff1a047-401-6745"}}, {"name": "\u3053\u3067\u307e\u308a\u4fdd\u80b2\u5712", "lat": 35.7316179, "lng": 139.9674996, "details": {"address": "\u3012273-0047\u3000\u8239\u6a4b\u5e02\u85e4\u539f2-2-22", "phone_number": "\u96fb\u8a71\uff1a047-703-7700 FAX\uff1a047-703-7701"}}, {"name": "\u306f\u3055\u307e\u4fdd\u80b2\u5712", "lat": 35.7117295, "lng": 140.0337286, "details": {"address": "\u3012274-0822\u3000\u8239\u6a4b\u5e02\u98ef\u5c71\u6e80\u753a3-1512-1", "phone_number": "\u96fb\u8a71\uff1a047-467-1999 FAX\uff1a047-401-6878"}}, {"name": "\u7f8e\u3057\u304c\u4e18\u4fdd\u80b2\u5712", "lat": 35.7279902, "lng": 140.0624543, "details": {"address": "\u3012274-0060\u3000\u8239\u6a4b\u5e02\u576a\u4e95\u67715-18-30", "phone_number": "\u96fb\u8a71\uff1a047-457-8806 FAX\uff1a047-457-8807"}}, {"name": "\u8239\u6a4b\u30d4\u30b3\u30ec\u30fc\u30eb\u4fdd\u80b2\u5712", "lat": 35.694728, "lng": 139.9910652, "details": {"address": "\u3012273-0003\u3000\u8239\u6a4b\u5e02\u5bae\u672c2-6-26", "phone_number": "\u96fb\u8a71\uff1a047-425-5057 FAX\uff1a047-425-5057"}}, {"name": "\u306a\u306e\u82b1\u4fdd\u80b2\u5712", "lat": 35.7089934, "lng": 140.0157512, "details": {"address": "\u3012274-0822\u3000\u8239\u6a4b\u5e02\u98ef\u5c71\u6e80\u753a1-967-1", "phone_number": "\u96fb\u8a71\uff1a047-405-9512 FAX\uff1a047-405-9513"}}, {"name": "\u30d9\u30eb\u30fb\u30ca\u30fc\u30b5\u30ea\u30fc\u30fb\u30a2\u30b9\u30fc\u30eb", "lat": 35.7094476, "lng": 139.9778173, "details": {"address": "\u3012273-0021\u3000\u8239\u6a4b\u5e02\u6d77\u795e3-30-1", "phone_number": "\u96fb\u8a71\uff1a047-432-1717 FAX\uff1a047-432-1718"}}, {"name": "\u305f\u3061\u3070\u306a\u4fdd\u80b2\u5712", "lat": 35.69395859999999, "lng": 140.0242311, "details": {"address": "\u3012274-0825\u3000\u8239\u6a4b\u5e02\u524d\u539f\u897f2-24-10\uff08\u4ee3\u8868\uff09", "phone_number": "\u96fb\u8a71\uff1a047-470-3745 FAX\uff1a047-470-3746"}}, {"name": "\u5357\u8239\u6a4b\u4fdd\u80b2\u5712", "lat": 35.6791319, "lng": 139.9971617, "details": {"address": "\u3012273-0013\u3000\u8239\u6a4b\u5e02\u82e5\u677e2-3-15", "phone_number": "\u96fb\u8a71\uff1a047-401-5115 FAX\uff1a047-401-5116"}}, {"name": "\u9ad8\u6839\u53f0\u30b0\u30ea\u30fc\u30f3\u30ad\u30c7\u30a3\u4fdd\u80b2\u5712", "lat": 35.7325494, "lng": 140.0333569, "details": {"address": "\u3012274-0065\u3000\u8239\u6a4b\u5e02\u9ad8\u6839\u53f02-10-5", "phone_number": "\u96fb\u8a71\uff1a047-465-5900 FAX\uff1a047-465-5899"}}, {"name": "\u30a2\u30dd\u30ed\u30f3\u306e\u4e18", "lat": 35.7276043, "lng": 140.0472692, "details": {"address": "\u3012274-0063\u3000\u8239\u6a4b\u5e02\u7fd2\u5fd7\u91ce\u53f02\uff0d59\uff0d22", "phone_number": "\u96fb\u8a71\uff1a047-404-5427 FAX\uff1a047-404-5428"}}, {"name": "\u30ea\u30b5\u4fdd\u80b2\u5712", "lat": 35.703436, "lng": 139.9604635, "details": {"address": "\u3012273-0024\u3000\u8239\u6a4b\u5e02\u6d77\u795e\u753a\u53571-728", "phone_number": "\u96fb\u8a71\uff1a047-404-5621 FAX\uff1a047-404-5631"}}, {"name": "\u30b7\u30fc\u30ac\u30eb\u4fdd\u80b2\u5712", "lat": 35.713454, "lng": 140.021494, "details": {"address": "\u3012274-0822\u3000\u8239\u6a4b\u5e02\u98ef\u5c71\u6e80\u753a2-1007-1", "phone_number": "\u96fb\u8a71\uff1a047-404-7611 FAX\uff1a047-404-7612"}}, {"name": "\u656c\u5fc3\u3086\u3081\u4fdd\u80b2\u5712", "lat": 35.7007292, "lng": 140.0090411, "details": {"address": "\u3012273-0002\u3000\u8239\u6a4b\u5e02\u6771\u8239\u6a4b3-15-8", "phone_number": "\u96fb\u8a71\uff1a047-411-5725 FAX\uff1a047-424-7373"}}, {"name": "\u3086\u3044\u307e\u30fc\u308b\u4fdd\u80b2\u5712", "lat": 35.7129199, "lng": 139.9816164, "details": {"address": "\u3012273-0864\u3000\u8239\u6a4b\u5e02\u5317\u672c\u753a1-12-8", "phone_number": "\u96fb\u8a71\uff1a047-424-7711 FAX\uff1a047-424-7713"}}, {"name": "\u30ca\u30fc\u30b5\u30ea\u30fc\u6728\u306e\u5b9f", "lat": 35.7244571, "lng": 140.0625864, "details": {"address": "\u3012274-0060\u3000\u8239\u6a4b\u5e02\u576a\u4e95\u67714-7-60", "phone_number": "\u96fb\u8a71\uff1a047-497-8457 FAX:047-497-8458"}}, {"name": "\u4e38\u5c71\u65ed\u4fdd\u80b2\u5712", "lat": 35.7431081, "lng": 139.9935858, "details": {"address": "\u3012273-0048\u3000\u8239\u6a4b\u5e02\u4e38\u5c715-33-25", "phone_number": "\u96fb\u8a71\uff1a047-438-3383 FAX\uff1a047-438-3384"}}, {"name": "\u5171\u540c\u4fdd\u80b2\u6240 \u5b50\u3069\u3082\u306e\u5bb6", "lat": 35.7025289, "lng": 139.9901585, "details": {"address": "\u3012273-0005\u3000\u8239\u6a4b\u5e02\u672c\u753a5-15-9", "phone_number": "\u96fb\u8a71\uff1a047-423-1770 FAX\uff1a047-460-3700"}}, {"name": "\u3042\u3044\u30fb\u3042\u3044\u4fdd\u80b2\u5712 \u5bae\u672c\u5712", "lat": 35.690573, "lng": 139.9947837, "details": {"address": "\u3012273-0003\u3000\u8239\u6a4b\u5e02\u5bae\u672c3-9-4", "phone_number": "\u96fb\u8a71\uff1a047-401-0271 FAX\uff1a047-401-0275"}}, {"name": "\u3042\u307e\u306d\u306e\u675c\u4fdd\u80b2\u5712", "lat": 35.7227772, "lng": 139.9721272, "details": {"address": "\u3012273-0044\u3000\u8239\u6a4b\u5e02\u884c\u75302-9-10", "phone_number": "\u96fb\u8a71\uff1a047-401-5011 FAX\uff1a047-401-5021"}}, {"name": "\u6771\u8239\u6a4b\u3061\u3068\u305b\u4fdd\u80b2\u5712", "lat": 35.6973485, "lng": 140.0046507, "details": {"address": "\u3012273-0002\u3000\u8239\u6a4b\u5e02\u6771\u8239\u6a4b1-16-25", "phone_number": "\u96fb\u8a71\uff1a047-423-5717 FAX\uff1a047-423-5718"}}, {"name": "\u8239\u6a4b\u3069\u308d\u3093\u3053\u4fdd\u80b2\u5712", "lat": 35.7055136, "lng": 139.9861342, "details": {"address": "\u3012273-0005\u3000\u8239\u6a4b\u5e02\u672c\u753a6-8-9", "phone_number": "\u96fb\u8a71\uff1a047-429-8140 FAX\uff1a047-429-8141"}}, {"name": "\u30b0\u30ed\u30fc\u30d0\u30eb\u30ad\u30c3\u30ba \u30b3\u30c8\u30cb\u30a2\u897f\u8239\u6a4b\u5712", "lat": 35.7121752, "lng": 139.9485808, "details": {"address": "\u3012273-0036\u3000\u8239\u6a4b\u5e02\u6771\u4e2d\u5c711-19-13", "phone_number": "\u96fb\u8a71\uff1a047-336-6661 FAX\uff1a047-318-3317"}}, {"name": "\u8239\u6a4b\u30cf\u30fc\u30e2\u30cb\u30fc\u4fdd\u80b2\u5712", "lat": 35.7036449, "lng": 140.0334566, "details": {"address": "\u3012274-0824\u3000\u8239\u6a4b\u5e02\u524d\u539f\u67715-8-8", "phone_number": "\u96fb\u8a71\uff1a047-429-8802 FAX\uff1a047-429-8801"}}, {"name": "\u30df\u30a2\u30d8\u30eb\u30b5\u4fdd\u80b2\u5712\u3072\u3073\u304d\u65b0\u8239\u6a4b", "lat": 35.709624, "lng": 139.979326, "details": {"address": "\u3012273-0021\u3000\u8239\u6a4b\u5e02\u6d77\u795e3-26-30", "phone_number": "\u96fb\u8a71\uff1a047-401-3875 FAX\uff1a047-401-3876"}}, {"name": "\u3048\u304c\u304a\u306e\u68ee\u4fdd\u80b2\u5712\u30fb\u306b\u3057\u3075\u306a\u3070\u3057", "lat": 35.70780209999999, "lng": 139.9547175, "details": {"address": "\u3012273-0033\u3000\u8239\u6a4b\u5e02\u672c\u90f7\u753a430", "phone_number": "\u96fb\u8a71\uff1a047-332-0581 FAX\uff1a047-332-0582"}}, {"name": "\u85ac\u5712\u53f0\u30fb\u5b66\u3073\u306e\u4fdd\u80b2\u5712", "lat": 35.7102433, "lng": 140.0390976, "details": {"address": "\u3012274-0077\u3000\u8239\u6a4b\u5e02\u85ac\u5186\u53f05-6-7", "phone_number": "\u96fb\u8a71\uff1a047-402-4680 FAX\uff1a047-402-4681"}}, {"name": "\u3042\u3044\u30fb\u3042\u3044\u4fdd\u80b2\u5712 \u5317\u7fd2\u5fd7\u91ce\u5712", "lat": 35.7213755, "lng": 140.0416589, "details": {"address": "\u3012274-0815\u3000\u8239\u6a4b\u5e02\u897f\u7fd2\u5fd7\u91ce3-27-7", "phone_number": "\u96fb\u8a71\uff1a047-404-7771 FAX\uff1a047-404-7772"}}, {"name": "\u8239\u6a4b\u5149\u306e\u5b50\u4fdd\u80b2\u5712", "lat": 35.7436048, "lng": 139.9912462, "details": {"address": "\u3012273-0048\u3000\u8239\u6a4b\u5e02\u4e38\u5c711-3-3", "phone_number": "\u96fb\u8a71\uff1a047-406-7055 FAX\uff1a047-406-7056"}}, {"name": "\u30d6\u30eb\u30a5\u30df\u30f3\u30b0\u4fdd\u80b2\u5712", "lat": 35.6995599, "lng": 139.9917677, "details": {"address": "\u3012273-0003\u3000\u8239\u6a4b\u5e02\u5bae\u672c1-8-11", "phone_number": "\u96fb\u8a71\uff1a047-409-9996 FAX\uff1a047-409-9997"}}, {"name": "\u305d\u3089\u307e\u3081\u4fdd\u80b2\u5712 \u65b0\u8239\u6a4b", "lat": 35.7099473, "lng": 139.9827696, "details": {"address": "\u3012273-0864\u3000\u8239\u6a4b\u5e02\u5317\u672c\u753a1-17-22", "phone_number": "\u96fb\u8a71\uff1a047-455-8682 FAX\uff1a047-455-8683"}}, {"name": "\u30b0\u30ea\u30e5\u30c3\u30af\u4fdd\u80b2\u5712", "lat": 35.6973485, "lng": 140.0046507, "details": {"address": "\u3012273-0002\u3000\u8239\u6a4b\u5e02\u6771\u8239\u6a4b1-26-10", "phone_number": "\u96fb\u8a71\uff1a047-424-3741 FAX:047-455-3457"}}, {"name": "\u3042\u3044\u30fb\u3042\u3044\u4fdd\u80b2\u5712 \u8239\u6a4b\u6cd5\u5178\u5712", "lat": 35.7311739, "lng": 139.9703229, "details": {"address": "\u3012273-0046\u3000\u8239\u6a4b\u5e02\u4e0a\u5c71\u753a1-223-4", "phone_number": "\u96fb\u8a71\uff1a047-382-5357 FAX\uff1a047-382-5358"}}, {"name": "\u3042\u3044\u30fb\u3042\u3044\u4fdd\u80b2\u5712 \u897f\u8239\u6a4b\u5712", "lat": 35.7098729, "lng": 139.9569955, "details": {"address": "\u3012273-0031\u3000\u8239\u6a4b\u5e02\u897f\u82395-26-25\u30002\u30fb3\u968e", "phone_number": "\u96fb\u8a71\uff1a047-307-9202 FAX\uff1a047-307-9203"}}, {"name": "\u8239\u6a4b\u6cd5\u5178\u3059\u304d\u3063\u3077\u4fdd\u80b2\u5712", "lat": 35.7293702, "lng": 139.9635814, "details": {"address": "\u3012273-0047\u3000\u8239\u6a4b\u5e02\u85e4\u539f1-3-10", "phone_number": "\u96fb\u8a71\uff1a047-382-5917 FAX\uff1a047-382-5918"}}, {"name": "\u3086\u3081\u306e\u3082\u308a\u4fdd\u80b2\u5712", "lat": 35.6978481, "lng": 140.0249668, "details": {"address": "\u3012274-0825\u3000\u8239\u6a4b\u5e02\u524d\u539f\u897f7-1-19", "phone_number": "\u96fb\u8a71\uff1a047-406-4700 FAX:047-406-4702"}}, {"name": "\u585a\u7530\u3053\u3053\u308f\u4fdd\u80b2\u5712", "lat": 35.7191699, "lng": 139.9811402, "details": {"address": "\u3012273-0864\u3000\u8239\u6a4b\u5e02\u5317\u672c\u753a2-41-20", "phone_number": "\u96fb\u8a71\uff1a047-407-0243 FAX\uff1a047-407-0244"}}, {"name": "\u306b\u3058\u3044\u308d\u4fdd\u80b2\u5712 \u85ac\u5186\u53f0", "lat": 35.7078143, "lng": 140.0431498, "details": {"address": "\u3012274-0077\u3000\u8239\u6a4b\u5e02\u85ac\u5186\u53f01-24-1", "phone_number": "\u96fb\u8a71\uff1a047-402-4033 FAX\uff1a047-402-4034"}}, {"name": "\u307e\u306a\u3073\u306e\u68ee\u4fdd\u80b2\u5712 \u98ef\u5c71\u6e80", "lat": 35.7109217, "lng": 140.0275887, "details": {"address": "\u3012274-0823\u3000\u8239\u6a4b\u5e02\u4e8c\u5bae1-71-30", "phone_number": "\u96fb\u8a71\uff1a047-466-7788 FAX\uff1a047-466-7788"}}, {"name": "\u8239\u6a4b\u3069\u308d\u3093\u3053\u4fdd\u80b2\u5712 \u5206\u5712", "lat": 35.7014346, "lng": 139.9892594, "details": {"address": "\u3012273-0005\u3000\u8239\u6a4b\u5e02\u672c\u753a5-18-25", "phone_number": "\u96fb\u8a71\uff1a047-409-2871 FAX\uff1a047-409-2872"}}, {"name": "\u592a\u967d\u306e\u5b50 \u585a\u7530\u4fdd\u80b2\u5712", "lat": 35.7233306, "lng": 139.9811933, "details": {"address": "\u3012273-0043\u3000\u8239\u6a4b\u5e02\u884c\u7530\u753a352-5", "phone_number": "\u96fb\u8a71\uff1a047-406-6006 FAX\uff1a047-406-6007"}}, {"name": "\u308a\u3093\u3054\u306e\u304d\u4fdd\u80b2\u5712", "lat": 35.6983525, "lng": 140.0041162, "details": {"address": "\u3012273-0002\u3000\u8239\u6a4b\u5e02\u6771\u8239\u6a4b1-24-15\u3000\u30b0\u30ec\u30a4\u30b9\u6771\u8239\u6a4b1\u968e", "phone_number": "\u96fb\u8a71\uff1a047-411-8054 FAX\uff1a047-413-0666"}}, {"name": "\u65b0\u8239\u6a4b\u3053\u3053\u308f\u4fdd\u80b2\u5712", "lat": 35.7112993, "lng": 139.9702804, "details": {"address": "\u3012273-0021\u3000\u8239\u6a4b\u5e02\u6d77\u795e5-29-61", "phone_number": "\u96fb\u8a71\uff1a047-402-6431 FAX\uff1a047-402-6451"}}, {"name": "\u897f\u8239\u6a4b\u3059\u304d\u3063\u3077\u4fdd\u80b2\u5712", "lat": 35.7102264, "lng": 139.9597716, "details": {"address": "\u3012273-0031\u3000\u8239\u6a4b\u5e02\u897f\u82394-12-20", "phone_number": "\u96fb\u8a71\uff1a047-401-6251 FAX\uff1a047-401-6252"}}, {"name": "\u30e9\u30d6\u30ad\u30c3\u30ba", "lat": 35.7184533, "lng": 139.9707011, "details": {"address": "\u3012273-0044\u3000\u8239\u6a4b\u5e02\u884c\u75303-2-21", "phone_number": "\u96fb\u8a71\uff1a047-429-1212 FAX\uff1a047-429-1414"}}, {"name": "\u307e\u306a\u3073\u306e\u68ee\u4fdd\u80b2\u5712 \u6771\u8239\u6a4b", "lat": 35.6981874, "lng": 140.0022367, "details": {"address": "\u3012273-0002\u3000\u8239\u6a4b\u5e02\u6771\u8239\u6a4b1-18-12", "phone_number": "\u96fb\u8a71\uff1a047-411-1155 FAX\uff1a047-411-1155"}}, {"name": "\u305f\u3093\u307d\u307d\u897f\u8239\u6a4b\u99c5\u524d\u4fdd\u80b2\u5712", "lat": 35.7050271, "lng": 139.9576134, "details": {"address": "\u3012273-0025\u3000\u8239\u6a4b\u5e02\u5370\u5185\u753a631-1", "phone_number": "\u96fb\u8a71\uff1a047-420-3017 FAX\uff1a047-420-3018"}}, {"name": "\u3086\u3081\u308f\u304b\u3070\u4fdd\u80b2\u5712", "lat": 35.6978283, "lng": 140.0311049, "details": {"address": "\u3012274-0824\u3000\u8239\u6a4b\u5e02\u524d\u539f\u67712-18-41", "phone_number": "\u96fb\u8a71\uff1a047-406-4421 FAX\uff1a047-406-4422"}}, {"name": "\u305f\u3093\u307d\u307d\u6d77\u795e\u753a\u5357\u4fdd\u80b2\u5712", "lat": 35.702167, "lng": 139.9631021, "details": {"address": "\u3012273-0024\u3000\u8239\u6a4b\u5e02\u6d77\u795e\u753a\u53571\u20101428\u201020", "phone_number": "\u96fb\u8a71\uff1a047-495-6200 FAX\uff1a047-495-6201"}}, {"name": "\u8239\u6a4b\u304f\u308c\u3088\u3093\u4fdd\u80b2\u5712", "lat": 35.7293129, "lng": 140.0599654, "details": {"address": "\u3012274-0060\u3000\u8239\u6a4b\u5e02\u576a\u4e95\u67712\u201013\uff0d27", "phone_number": "\u96fb\u8a71\uff1a047-460-9926 FAX\uff1a047-460-9928"}}, {"name": "Milky Way International Nursery School \u65b0\u8239\u6a4b\u6821", "lat": 35.7135725, "lng": 139.986531, "details": {"address": "\u3012273-0865\u3000\u8239\u6a4b\u5e02\u590f\u898b3-20-11", "phone_number": "\u96fb\u8a71\uff1a047-455-3225 FAX\uff1a047-455-3226"}}, {"name": "\u897f\u8239\u6a4b\u96f2\u6bcd\u4fdd\u80b2\u5712", "lat": 35.7081841, "lng": 139.9536589, "details": {"address": "\u3012273-0033\u3000\u8239\u6a4b\u5e02\u672c\u90f7\u753a456-1", "phone_number": "\u96fb\u8a71\uff1a047-709-4300 FAX\uff1a047-709-4301"}}, {"name": "\u305d\u3089\u307e\u3081\u4fdd\u80b2\u5712 \u897f\u8239\u6a4b", "lat": 35.7062407, "lng": 139.9686622, "details": {"address": "\u3012273-0021\u3000\u8239\u6a4b\u5e02\u6d77\u795e6-16-11", "phone_number": "\u96fb\u8a71\uff1a047-497-8285 FAX\uff1a047-497-8286"}}, {"name": "\u307e\u306a\u3073\u306e\u68ee\u4fdd\u80b2\u5712 \u8239\u6a4b\u7af6\u99ac\u5834\u99c5\u524d", "lat": 35.6895785, "lng": 139.9970893, "details": {"address": "\u3012273-0003\u3000\u8239\u6a4b\u5e02\u5bae\u672c9-1-11", "phone_number": "\u96fb\u8a71\uff1a047-402-4402 FAX\uff1a047-402-4402"}}, {"name": "\u30dd\u30dd\u30e9\u30fc\u5343\u8449\u65b0\u8239\u6a4b\u5712", "lat": 35.711967, "lng": 139.9815336, "details": {"address": "\u3012273-0864\u3000\u8239\u6a4b\u5e02\u5317\u672c\u753a1-12-17\u3000\u30d7\u30e9\u30a6\u30c9\u8239\u6a4b\u30af\u30e9\u30d6\u30cf\u30a6\u30b92\u968e", "phone_number": "\u96fb\u8a71\uff1a047-460-3040 FAX\uff1a047-460-3041"}}, {"name": "\u8239\u6a4b\u3046\u3081\u306e\u304d\u4fdd\u80b2\u5712", "lat": 35.7309558, "lng": 139.9702129, "details": {"address": "\u3012273-0046\u3000\u8239\u6a4b\u5e02\u4e0a\u5c71\u753a1-225-3", "phone_number": "\u96fb\u8a71\uff1a047-710-5431 FAX\uff1a047-710-5438"}}, {"name": "\u30df\u30a2\u30d8\u30eb\u30b5\u4fdd\u80b2\u5712\u3072\u3073\u304d\u65b0\u8239\u6a4b\u5317", "lat": 35.7134013, "lng": 139.9770724, "details": {"address": "\u3012273-0045\u3000\u8239\u6a4b\u5e02\u5c71\u624b1-1-11", "phone_number": "\u96fb\u8a71\uff1a047-498-9370 FAX\uff1a047-498-9371"}}, {"name": "\u8239\u6a4b\u99ac\u8fbc\u6ca2\u96f2\u6bcd\u4fdd\u80b2\u5712", "lat": 35.7362892, "lng": 139.9803787, "details": {"address": "\u3012273-0046\u3000\u8239\u6a4b\u5e02\u4e0a\u5c71\u753a2-487-1", "phone_number": "\u96fb\u8a71\uff1a047-430-2424 FAX\uff1a047-430-2425"}}, {"name": "\u8239\u6a4b\u3053\u3069\u3082\u306e\u6728\u4fdd\u80b2\u5712", "lat": 35.7254832, "lng": 140.0352901, "details": {"address": "\u3012274-0815\u3000\u8239\u6a4b\u5e02\u897f\u7fd2\u5fd7\u91ce2-6-1", "phone_number": "\u96fb\u8a71\uff1a047-468-8207 FAX\uff1a047-468-8208"}}, {"name": "\u4eac\u9032\u306e\u307b\u3044\u304f\u3048\u3093 HOPPA\u524d\u539f\u897f", "lat": 35.698313, "lng": 140.0153968, "details": {"address": "\u3012274-0825\u3000\u8239\u6a4b\u5e02\u524d\u539f\u897f4-12-15", "phone_number": "\u96fb\u8a71\uff1a047-489-5260 FAX\uff1a047-489-5261"}}, {"name": "\u3053\u3053\u307f\u4fdd\u80b2\u5712", "lat": 35.7003314, "lng": 139.9803851, "details": {"address": "\u3012273-0021\u3000\u8239\u6a4b\u5e02\u6d77\u795e1-8-9", "phone_number": "\u96fb\u8a71\uff1a047-432-2904 FAX\uff1a047-432-2904"}}]