[{"name": "\u5c0f\u898f\u6a21\u4fdd\u80b2\u6240 \u30ea\u30c8\u30eb\u30ad\u30c7\u30a3", "lat": 35.7283216, "lng": 140.0610485, "details": {"address": "\u3012274-0060\u3000\u8239\u6a4b\u5e02\u576a\u4e95\u67713-10-1\u3000\u30b0\u30e9\u30f3\u30bd\u30b7\u30a2\u8239\u6a4b\u82bd\u5439\u306e\u675c\u5185", "phone_number": "\u96fb\u8a71\uff1a047-436-8011 FAX\uff1a047-436-8012"}}, {"name": "\u3046\u307f\u306e\u307b\u3044\u304f\u3048\u3093", "lat": 35.6957732, "lng": 139.9839786, "details": {"address": "\u3012273-0011\u3000\u8239\u6a4b\u5e02\u6e4a\u753a2-2-20\u3000\u30a2\u30bd\u30eb\u30c6\u30a3\u8239\u6a4b102\u30fb202", "phone_number": "\u96fb\u8a71\uff1a047-468-8698 FAX\uff1a047-468-8698"}}, {"name": "\u30d1\u30eb\u30d1\u30b9\u30c6\u30eb\u4fdd\u80b2\u5712", "lat": 35.701909, "lng": 139.9887355, "details": {"address": "\u3012273-0005\u3000\u8239\u6a4b\u5e02\u672c\u753a5-14-15\u3000\u30d1\u30eb\u30d1\u30b9\u30c6\u30eb101", "phone_number": "\u96fb\u8a71\uff1a047-460-6666 FAX\uff1a047-466-2989"}}, {"name": "\u30ad\u30c3\u30ba\u30e9\u30f3\u30c9\u672a\u6765", "lat": 35.7558932, "lng": 140.0242397, "details": {"address": "\u3012274-0805\u3000\u8239\u6a4b\u5e02\u4e8c\u548c\u67716-18-27\u3000\u5c71\u548c\u30d3\u30eb1F", "phone_number": "\u96fb\u8a71\uff1a047-448-7735 FAX\uff1a047-401-9395"}}, {"name": "\u4fdd\u80b2\u30eb\u30fc\u30e0 \u30ad\u30e5\u30fc\u30c6\u30a3\u30fc", "lat": 35.7006789, "lng": 140.0319026, "details": {"address": "\u3012274-0824\u3000\u8239\u6a4b\u5e02\u524d\u539f\u67715-18-4", "phone_number": "\u96fb\u8a71\uff1a047-427-7643 FAX\uff1a047-427-7643"}}, {"name": "\u592a\u967d\u306e\u5b50 \u8239\u6a4b\u4e09\u54b2\u4fdd\u80b2\u5712", "lat": 35.735703, "lng": 140.0240191, "details": {"address": "\u3012274-0813\u3000\u8239\u6a4b\u5e02\u5357\u4e09\u54b21-20-10\u30001F", "phone_number": "\u96fb\u8a71\uff1a047-440-6585 FAX\uff1a047-440-6586"}}, {"name": "\u3072\u3060\u307e\u308a\u6edd\u53f0\u4fdd\u80b2\u5712", "lat": 35.7077146, "lng": 140.0367543, "details": {"address": "\u3012274-0074\u3000\u8239\u6a4b\u5e02\u6edd\u53f01-12-12", "phone_number": "\u96fb\u8a71\uff1a047-436-8840 FAX\uff1a047-436-8840"}}, {"name": "\u4eac\u9032\u306e\u307b\u3044\u304f\u3048\u3093 HOPPA\u8239\u6a4b\u99c5\u5712", "lat": 35.7010301, "lng": 139.9904967, "details": {"address": "\u3012273-0005\u3000\u8239\u6a4b\u5e02\u672c\u753a4-7-17", "phone_number": "\u96fb\u8a71\uff1a047-405-2613 FAX\uff1a047-405-2614"}}, {"name": "\u4eac\u9032\u306e\u307b\u3044\u304f\u3048\u3093 HOPPA\u6d25\u7530\u6cbc\u5712", "lat": 35.6926794, "lng": 140.0190821, "details": {"address": "\u3012274-0825\u3000\u8239\u6a4b\u5e02\u524d\u539f\u897f2-7-9\u3000\u4e09\u771f\u30d3\u30eb2F", "phone_number": "\u96fb\u8a71\uff1a047-409-9571 FAX\uff1a047-409-9572"}}, {"name": "\u30ea\u30c8\u30eb\u30fb\u6e05\u548c", "lat": 35.7262488, "lng": 139.9753692, "details": {"address": "\u3012273-0042\u3000\u8239\u6a4b\u5e02\u524d\u8c9d\u585a\u753a646-8", "phone_number": "\u96fb\u8a71\uff1a047-404-7516 FAX\uff1a047-439-1793"}}, {"name": "\u30c8\u30ec\u30dd\u30f3\u30c6\u99c5\u524d\u4fdd\u80b2\u5712", "lat": 35.7053588, "lng": 139.9854622, "details": {"address": "\u3012273-0005\u3000\u8239\u6a4b\u5e02\u672c\u753a6-8-1", "phone_number": "\u96fb\u8a71\uff1a047-409-8816 FAX\uff1a047-421-0023"}}, {"name": "\u308a\u308a\u3071\u3063\u3068\u30ca\u30fc\u30b5\u30ea\u30fc\u6d25\u7530\u6cbc\u5712", "lat": 35.6941807, "lng": 140.0190391, "details": {"address": "\u3012274-0825\u3000\u8239\u6a4b\u5e02\u524d\u539f\u897f2-44-10", "phone_number": "\u96fb\u8a71\uff1a047-405-2331 FAX\uff1a047-405-2433"}}, {"name": "\u308a\u308a\u3071\u3063\u3068\u30ca\u30fc\u30b5\u30ea\u30fc\u4e2d\u5c71\u5712", "lat": 35.7151091, "lng": 139.9422169, "details": {"address": "\u3012273-0035\u3000\u8239\u6a4b\u5e02\u672c\u4e2d\u5c712-23-16", "phone_number": "\u96fb\u8a71\uff1a047-303-3038 FAX\uff1a047-303-3038"}}, {"name": "\u30b3\u30b3\u30d5\u30a1\u30f3\u30fb\u30ca\u30fc\u30b5\u30ea\u30fc\u897f\u8239\u6a4b", "lat": 35.7087272, "lng": 139.9488259, "details": {"address": "\u3012273-0034\u3000\u8239\u6a4b\u5e02\u4e8c\u5b50\u753a610", "phone_number": "\u96fb\u8a71\uff1a047-302-7761 FAX\uff1a047-333-3131"}}, {"name": "\u5065\u4f38\u3080\u304e\u306e\u5b50\u4fdd\u80b2\u5712", "lat": 35.745839, "lng": 139.99476, "details": {"address": "\u3012273-0048\u3000\u8239\u6a4b\u5e02\u4e38\u5c715-15-15", "phone_number": "\u96fb\u8a71\uff1a047-404-8746 FAX\uff1a047-404-8747"}}, {"name": "\u3059\u305a\u3089\u3093\u4fdd\u80b2\u5712", "lat": 35.6971347, "lng": 140.0515459, "details": {"address": "\u3012274-0072\u3000\u8239\u6a4b\u5e02\u4e09\u5c713-39-2", "phone_number": "\u96fb\u8a71\uff1a047-409-9541 FAX\uff1a047-409-9545"}}, {"name": "\u30af\u30ec\u30e8\u30f3\u30ad\u30c3\u30ba\u5317\u7fd2\u5fd7\u91ce\u5712", "lat": 35.7231, "lng": 140.0402846, "details": {"address": "\u3012274-0063\u3000\u8239\u6a4b\u5e02\u7fd2\u5fd7\u91ce\u53f01-34-25", "phone_number": "\u96fb\u8a71\uff1a047-456-4440 FAX\uff1a047-456-4441"}}, {"name": "\u6771\u8239\u6a4b\u8272\u8449\u4fdd\u80b2\u5712", "lat": 35.6989839, "lng": 140.0045021, "details": {"address": "\u3012273-0002\u3000\u8239\u6a4b\u5e02\u6771\u8239\u6a4b4-31-9", "phone_number": "\u96fb\u8a71\uff1a047-460-2727 FAX\uff1a047-460-2737"}}, {"name": "\u30ea\u30c3\u30d7\u30eb\u4fdd\u80b2\u5712 \u897f\u8239\u6a4b", "lat": 35.707114, "lng": 139.9562379, "details": {"address": "\u3012273-0032\u3000\u8239\u6a4b\u5e02\u845b\u98fe\u753a2-378-7", "phone_number": "\u96fb\u8a71\uff1a047-401-5567 FAX\uff1a047-401-5568"}}, {"name": "\u3072\u304b\u308a\u4fdd\u80b2\u5712", "lat": 35.7154195, "lng": 140.0441545, "details": {"address": "\u3012274-0063\u3000\u8239\u6a4b\u5e02\u7fd2\u5fd7\u91ce\u53f04-3-9", "phone_number": "\u96fb\u8a71\uff1a047-456-6370 FAX\uff1a047-456-6370"}}, {"name": "\u30df\u30a2\u30d8\u30eb\u30b5\u4fdd\u80b2\u5712\u3072\u3073\u304d\u65b0\u8239\u6a4b\u7b2c\u4e8c", "lat": 35.7114727, "lng": 139.9800188, "details": {"address": "\u3012273-0045\u3000\u8239\u6a4b\u5e02\u5c71\u624b1-3-17", "phone_number": "\u96fb\u8a71\uff1a047-409-9055 FAX\uff1a047-409-9056"}}, {"name": "\u3084\u304d\u304c\u3084\u306a\u304b\u3088\u3057\u4fdd\u80b2\u5712", "lat": 35.7606818, "lng": 140.0328772, "details": {"address": "\u8239\u6a4b\u5e02\u516b\u6728\u304c\u8c372-18-1", "phone_number": "\u96fb\u8a71\uff1a047-498-9367 FAX\uff1a047-498-9368"}}, {"name": "\u30b5\u30f3\u30f4\u30a7\u30eb\u30c7\u4fdd\u80b2\u5712", "lat": 35.7286149, "lng": 140.0145948, "details": {"address": "\u8239\u6a4b\u5e02\u7dd1\u53f02-4-17", "phone_number": "\u96fb\u8a71\uff1a047-402-2270 FAX\uff1a047-402-2271"}}, {"name": "\u3072\u3060\u307e\u308a\u4fdd\u80b2\u5712", "lat": 35.7101927, "lng": 140.037685, "details": {"address": "\u8239\u6a4b\u5e02\u85ac\u5186\u53f06-1-1\u3000\u85ac\u5712\u53f0\u99c52\u968e", "phone_number": "\u96fb\u8a71\uff1a047-404-8511 FAX\uff1a047-404-8512"}}, {"name": "\u3053\u308a\u3093\u3054\u4fdd\u80b2\u5712", "lat": 35.6991964, "lng": 140.0040558, "details": {"address": "\u3012273-0002\u3000\u8239\u6a4b\u5e02\u6771\u8239\u6a4b1-38-3\u3000\u6e05\u6c34\u30d3\u30eb2\u968e", "phone_number": "\u96fb\u8a71\uff1a047-406-4380 FAX\uff1a047-413-0666"}}, {"name": "\u4fdd\u80b2\u30eb\u30fc\u30e0\u3000\u30b5\u30f3\u30e9\u30a4\u30ba\u8239\u6a4b", "lat": 35.700848, "lng": 139.982072, "details": {"address": "\u3012273-0005\u3000\u8239\u6a4b\u5e02\u672c\u753a1-25-18\u3000\u30b8\u30fc\u30ea\u30aa\u8239\u6a4b", "phone_number": "\u96fb\u8a71\uff1a047-422-0805 FAX\uff1a047-422-0805"}}]