[{"name": "\u6075\u6953\u5e7c\u7a1a\u5712", "lat": 35.6909075, "lng": 139.9987122, "details": {"address": "\u3012273-0003\u3000\u5343\u8449\u770c\u8239\u6a4b\u5e02\u5bae\u672c8-35-12", "phone_number": "047-424-5100"}}, {"name": "\u82e5\u677e\u5e7c\u7a1a\u5712", "lat": 35.6786083, "lng": 139.9965109, "details": {"address": "\u3012273-0013\u3000\u5343\u8449\u770c\u8239\u6a4b\u5e02\u82e5\u677e2-3-3", "phone_number": "047-431-7751"}}, {"name": "\u8239\u6a4b\u5e7c\u7a1a\u5712", "lat": 35.697023, "lng": 139.9865711, "details": {"address": "\u3012273-0005\u3000\u5343\u8449\u770c\u8239\u6a4b\u5e02\u672c\u753a3-36-32", "phone_number": "047-424-3351"}}, {"name": "\u3072\u306a\u304e\u304f\u5e7c\u7a1a\u5712", "lat": 35.7112753, "lng": 139.9731043, "details": {"address": "\u3012273-0021\u3000\u5343\u8449\u770c\u8239\u6a4b\u5e02\u6d77\u795e4-29-10", "phone_number": "047-431-3569"}}, {"name": "\u4e8c\u8449\u5e7c\u7a1a\u5712", "lat": 35.7071806, "lng": 139.9706606, "details": {"address": "\u3012273-0021\u3000\u5343\u8449\u770c\u8239\u6a4b\u5e02\u6d77\u795e5-7-14", "phone_number": "047-431-4701"}}, {"name": "\u6d77\u795e\u5e7c\u7a1a\u5712", "lat": 35.7053223, "lng": 139.9686492, "details": {"address": "\u3012273-0021\u3000\u5343\u8449\u770c\u8239\u6a4b\u5e02\u6d77\u795e6-18-34", "phone_number": "047-431-5708"}}, {"name": "\u5c71\u91ce\u5e7c\u7a1a\u5712", "lat": 35.7104453, "lng": 139.9667138, "details": {"address": "\u3012273-0031\u3000\u5343\u8449\u770c\u8239\u6a4b\u5e02\u897f\u82392-10-7", "phone_number": "047-431-2431"}}, {"name": "\u897f\u8239\u5e7c\u7a1a\u5712", "lat": 35.7164748, "lng": 139.9693477, "details": {"address": "\u3012273-0031\u3000\u5343\u8449\u770c\u8239\u6a4b\u5e02\u897f\u82392-32-25", "phone_number": "047-431-2932"}}, {"name": "\u845b\u98fe\u5e7c\u7a1a\u5712", "lat": 35.7104859, "lng": 139.9585892, "details": {"address": "\u3012273-0031\u3000\u5343\u8449\u770c\u8239\u6a4b\u5e02\u897f\u82394-16-4", "phone_number": "047-431-4463"}}, {"name": "\u8239\u6a4b\u3072\u304b\u308a\u5e7c\u7a1a\u5712", "lat": 35.711025, "lng": 139.9487909, "details": {"address": "\u3012273-0034\u3000\u5343\u8449\u770c\u8239\u6a4b\u5e02\u4e8c\u5b50\u753a498", "phone_number": "047-335-5998"}}, {"name": "\u5065\u4f38\u884c\u7530\u5e7c\u7a1a\u5712", "lat": 35.718081, "lng": 139.9734108, "details": {"address": "\u3012273-0044\u3000\u5343\u8449\u770c\u8239\u6a4b\u5e02\u884c\u75302-4-3", "phone_number": "047-439-2125"}}, {"name": "\u6e05\u548c\u5e7c\u7a1a\u5712", "lat": 35.7259624, "lng": 139.9745507, "details": {"address": "\u3012273-0042\u3000\u5343\u8449\u770c\u8239\u6a4b\u5e02\u524d\u8c9d\u585a\u753a645", "phone_number": "047-439-1798"}}, {"name": "\u30b3\u30b9\u30e2\u30b9\u5e7c\u7a1a\u5712", "lat": 35.7345551, "lng": 139.9827781, "details": {"address": "\u3012273-0046\u3000\u5343\u8449\u770c\u8239\u6a4b\u5e02\u4e0a\u5c71\u753a3-512", "phone_number": "047-438-2790"}}, {"name": "\u5065\u4f38\u5e7c\u7a1a\u5712", "lat": 35.7463627, "lng": 139.9940468, "details": {"address": "\u3012273-0048\u3000\u5343\u8449\u770c\u8239\u6a4b\u5e02\u4e38\u5c715-12-7", "phone_number": "047-438-7019"}}, {"name": "\u65e5\u306e\u4e38\u5e7c\u7a1a\u5712", "lat": 35.7398358, "lng": 139.9924782, "details": {"address": "\u3012273-0855\u3000\u5343\u8449\u770c\u8239\u6a4b\u5e02\u99ac\u8fbc\u897f2-17-11", "phone_number": "047-438-4545"}}, {"name": "\u8239\u6a4b\u3072\u307e\u308f\u308a\u5e7c\u7a1a\u5712", "lat": 35.7109437, "lng": 139.9933361, "details": {"address": "\u3012273-0865\u3000\u5343\u8449\u770c\u8239\u6a4b\u5e02\u590f\u898b5-26-22", "phone_number": "047-422-7051"}}, {"name": "\u30b7\u30aa\u30f3\u5e7c\u7a1a\u5712", "lat": 35.7136475, "lng": 139.9950289, "details": {"address": "\u3012273-0865\u3000\u5343\u8449\u770c\u8239\u6a4b\u5e02\u590f\u898b6-6-6", "phone_number": "047-422-5644"}}, {"name": "\u590f\u898b\u53f0\u5e7c\u7a1a\u5712", "lat": 35.721378, "lng": 139.9964988, "details": {"address": "\u3012273-0866\u3000\u5343\u8449\u770c\u8239\u6a4b\u5e02\u590f\u898b\u53f02-16-1", "phone_number": "047-429-7231"}}, {"name": "\u91d1\u6749\u5e7c\u7a1a\u5712", "lat": 35.731348, "lng": 140.0071146, "details": {"address": "\u3012273-0853\u3000\u5343\u8449\u770c\u8239\u6a4b\u5e02\u91d1\u67493-6-1", "phone_number": "047-439-2525"}}, {"name": "\u7b2c\u4e8c\u8239\u6a4b\u3072\u307e\u308f\u308a\u5e7c\u7a1a\u5712", "lat": 35.7319823, "lng": 140.0123793, "details": {"address": "\u3012273-0853\u3000\u5343\u8449\u770c\u8239\u6a4b\u5e02\u91d1\u67498-4-12", "phone_number": "047-448-3960"}}, {"name": "\u307f\u3069\u308a\u53f0\u5e7c\u7a1a\u5712", "lat": 35.7285977, "lng": 140.0163592, "details": {"address": "\u3012274-0818\u3000\u5343\u8449\u770c\u8239\u6a4b\u5e02\u7dd1\u53f02-6", "phone_number": "047-448-3311"}}, {"name": "\u307f\u306e\u308a\u7b2c\u4e8c\u5e7c\u7a1a\u5712", "lat": 35.720027, "lng": 140.018132, "details": {"address": "\u3012274-0816\u3000\u5343\u8449\u770c\u8239\u6a4b\u5e02\u829d\u5c712-5-17", "phone_number": "047-467-6059"}}, {"name": "\u6804\u5149\u5e7c\u7a1a\u5712", "lat": 35.7163862, "lng": 140.0210882, "details": {"address": "\u3012274-0816\u3000\u5343\u8449\u770c\u8239\u6a4b\u5e02\u829d\u5c713-10-9", "phone_number": "047-464-8084"}}, {"name": "\u51a8\u58eb\u898b\u5e7c\u7a1a\u5712", "lat": 35.7320212, "lng": 140.0296744, "details": {"address": "\u3012274-0065\u3000\u5343\u8449\u770c\u8239\u6a4b\u5e02\u9ad8\u6839\u53f01-1-1", "phone_number": "047-465-2555"}}, {"name": "\u6728\u6238\u8107\u5e7c\u7a1a\u5712", "lat": 35.7283096, "lng": 140.0312152, "details": {"address": "\u3012274-0065\u3000\u5343\u8449\u770c\u8239\u6a4b\u5e02\u9ad8\u6839\u53f07-17-3", "phone_number": "047-465-6401"}}, {"name": "\u795e\u660e\u5e7c\u7a1a\u5712", "lat": 35.7096473, "lng": 140.0100379, "details": {"address": "\u3012274-0822\u3000\u5343\u8449\u770c\u8239\u6a4b\u5e02\u98ef\u5c71\u6e80\u753a1-640", "phone_number": "047-422-3447"}}, {"name": "\u98ef\u5c71\u6e80\u5e7c\u7a1a\u5712", "lat": 35.7162938, "lng": 140.0323703, "details": {"address": "\u3012274-0822\u3000\u5343\u8449\u770c\u8239\u6a4b\u5e02\u98ef\u5c71\u6e80\u753a3-1716-2", "phone_number": "047-467-1929"}}, {"name": "\u51a8\u58eb\u898b\u7b2c\u4e8c\u5e7c\u7a1a\u5712", "lat": 35.7032594, "lng": 140.0246576, "details": {"address": "\u3012274-0825\u3000\u5343\u8449\u770c\u8239\u6a4b\u5e02\u524d\u539f\u897f6-1-13", "phone_number": "047-474-0324"}}, {"name": "\u4e2d\u53f0\u5e7c\u7a1a\u5712", "lat": 35.7005675, "lng": 140.0297494, "details": {"address": "\u3012274-0824\u3000\u5343\u8449\u770c\u8239\u6a4b\u5e02\u524d\u539f\u67714-16-11", "phone_number": "047-472-7381"}}, {"name": "\u305f\u304d\u306e\u3044\u5e7c\u7a1a\u5712", "lat": 35.7058381, "lng": 140.0468535, "details": {"address": "\u3012274-0073\u3000\u5343\u8449\u770c\u8239\u6a4b\u5e02\u7530\u559c\u91ce\u4e956-20-3", "phone_number": "047-463-1986"}}, {"name": "\u3059\u305a\u3089\u3093\u5e7c\u7a1a\u5712", "lat": 35.6966354, "lng": 140.0515749, "details": {"address": "\u3012274-0072\u3000\u5343\u8449\u770c\u8239\u6a4b\u5e02\u4e09\u5c713-40-8", "phone_number": "047-472-8726"}}, {"name": "\u8239\u6a4b\u5c0f\u9ce9\u5e7c\u7a1a\u5712", "lat": 35.7034359, "lng": 140.054261, "details": {"address": "\u3012274-0072\u3000\u5343\u8449\u770c\u8239\u6a4b\u5e02\u4e09\u5c715-34-3", "phone_number": "047-473-3734"}}, {"name": "\u7fd2\u5fd7\u91ce\u53f0\u5e7c\u7a1a\u5712", "lat": 35.7276043, "lng": 140.0472692, "details": {"address": "\u3012274-0063\u3000\u5343\u8449\u770c\u8239\u6a4b\u5e02\u7fd2\u5fd7\u91ce\u53f02-59-22", "phone_number": "047-466-2151"}}, {"name": "\u745e\u7a42\u5e7c\u7a1a\u5712", "lat": 35.7168541, "lng": 140.0468241, "details": {"address": "\u3012274-0063\u3000\u5343\u8449\u770c\u8239\u6a4b\u5e02\u7fd2\u5fd7\u91ce\u53f04-42-20", "phone_number": "047-465-3300"}}, {"name": "\u8239\u6a4b\u3044\u3065\u307f\u5e7c\u7a1a\u5712", "lat": 35.7242986, "lng": 140.0526141, "details": {"address": "\u3012274-0063\u3000\u5343\u8449\u770c\u8239\u6a4b\u5e02\u7fd2\u5fd7\u91ce\u53f06-11-22", "phone_number": "047-466-5082"}}, {"name": "\u6728\u306e\u5b9f\u5e7c\u7a1a\u5712", "lat": 35.7250578, "lng": 140.0623733, "details": {"address": "\u3012274-0060\u3000\u5343\u8449\u770c\u8239\u6a4b\u5e02\u576a\u4e95\u67714-7-1", "phone_number": "047-457-2055"}}, {"name": "\u53e4\u548c\u91dc\u5e7c\u7a1a\u5712", "lat": 35.7328232, "lng": 140.049007, "details": {"address": "\u3012274-0064\u3000\u5343\u8449\u770c\u8239\u6a4b\u5e02\u677e\u304c\u4e184-32-1", "phone_number": "047-464-3030"}}, {"name": "\u3059\u305a\u307f\u5e7c\u7a1a\u5712", "lat": 35.7418181, "lng": 140.0399346, "details": {"address": "\u3012274-0067\u3000\u5343\u8449\u770c\u8239\u6a4b\u5e02\u5927\u7a74\u53573-8-12", "phone_number": "047-464-7121"}}, {"name": "\u82f1\u9032\u5e7c\u7a1a\u5712", "lat": 35.7544783, "lng": 140.0374044, "details": {"address": "\u3012274-0804\u3000\u5343\u8449\u770c\u8239\u6a4b\u5e02\u307f\u3084\u304e\u53f03-10-10", "phone_number": "047-448-7066"}}, {"name": "\u516b\u6728\u30b1\u8c37\u5e7c\u7a1a\u5712", "lat": 35.7606818, "lng": 140.0328772, "details": {"address": "\u3012274-0802\u3000\u5343\u8449\u770c\u8239\u6a4b\u5e02\u516b\u6728\u304c\u8c372-18-1", "phone_number": "047-447-6729"}}, {"name": "\u576a\u4e95\u5e7c\u7a1a\u5712", "lat": 35.7351081, "lng": 140.0659769, "details": {"address": "\u3012274-0062\u3000\u5343\u8449\u770c\u8239\u6a4b\u5e02\u576a\u4e95\u753a133-1", "phone_number": "047-456-1075"}}]