[
  {
    "name": "船橋旭こども園",
    "lat": 35.73059579758419,
    "lng": 139.9901650016367,
    "details": {
      "number": "1",
      "address": "千葉県船橋市夏見台5-7-13",
      "phone_number": "047-439-0010",
      "capacity": "150",
      "waiting_0yo": "0",
      "waiting_1yo": "0",
      "waiting_2yo": "0",
      "waiting_3yo": "0",
      "waiting_4yo": "0",
      "waiting_5yo": "0"
    }
  },
  {
    "name": "田喜野井旭こども園",
    "lat": 35.70507793483202,
    "lng": 140.03716206726,
    "details": {
      "number": "2",
      "address": "千葉県船橋市田喜野井4-30-12",
      "phone_number": "047-456-3180",
      "capacity": "60",
      "waiting_0yo": "0",
      "waiting_1yo": "2",
      "waiting_2yo": "0",
      "waiting_3yo": "0",
      "waiting_4yo": "0",
      "waiting_5yo": "0"
    }
  },
  {
    "name": "認定こども園　不二幼稚園",
    "lat": 35.71235257208569,
    "lng": 140.01698747618616,
    "details": {
      "number": "3",
      "address": "千葉県船橋市飯山満町2-666",
      "phone_number": "047-466-2925",
      "capacity": "318",
      "waiting_0yo": "0",
      "waiting_1yo": "1",
      "waiting_2yo": "1",
      "waiting_3yo": "0",
      "waiting_4yo": "0",
      "waiting_5yo": "0"
    }
  },
  {
    "name": "認定こども園おひさま",
    "lat": 35.70462147415973,
    "lng": 140.018246684207,
    "details": {
      "number": "4",
      "address": "千葉県船橋市前原西6-1-64",
      "phone_number": "047-476-7802",
      "capacity": "79",
      "waiting_0yo": "0",
      "waiting_1yo": "0",
      "waiting_2yo": "0",
      "waiting_3yo": "0",
      "waiting_4yo": "0",
      "waiting_5yo": "0"
    }
  },
  {
    "name": "認定こども園　大浜幼稚園",
    "lat": 35.716443830259855,
    "lng": 140.0434920698002,
    "details": {
      "number": "5",
      "address": "千葉県船橋市薬円台4-6-3",
      "phone_number": "047-466-5720",
      "capacity": "208",
      "waiting_0yo": "*",
      "waiting_1yo": "0",
      "waiting_2yo": "2",
      "waiting_3yo": "0",
      "waiting_4yo": "0",
      "waiting_5yo": "0"
    }
  },
  {
    "name": "そらまめこども園　船橋駅前",
    "lat": 35.70328459580345,
    "lng": 139.9802159532387,
    "details": {
      "number": "6",
      "address": "千葉県船橋市本町1-30-1",
      "phone_number": "047-405-9951",
      "capacity": "111",
      "waiting_0yo": "0",
      "waiting_1yo": "1",
      "waiting_2yo": "0",
      "waiting_3yo": "0",
      "waiting_4yo": "0",
      "waiting_5yo": "0"
    }
  },
  {
    "name": "高根台文化こども園",
    "lat": 35.73620039567188,
    "lng": 140.0355099396753,
    "details": {
      "number": "7",
      "address": "千葉県船橋市高根台3-3-2",
      "phone_number": "047-466-2511",
      "capacity": "210",
      "waiting_0yo": "*",
      "waiting_1yo": "2",
      "waiting_2yo": "1",
      "waiting_3yo": "1",
      "waiting_4yo": "0",
      "waiting_5yo": "0"
    }
  },
  {
    "name": "認定こども園　二和ひつじ幼稚園",
    "lat": 35.7570297264745,
    "lng": 140.02334411918227,
    "details": {
      "number": "8",
      "address": "千葉県船橋市二和東6-23-21",
      "phone_number": "047-447-2041",
      "capacity": "144",
      "waiting_0yo": "*",
      "waiting_1yo": "*",
      "waiting_2yo": "*",
      "waiting_3yo": "0",
      "waiting_4yo": "0",
      "waiting_5yo": "0"
    }
  },
  {
    "name": "モンテッソーリたんぽぽ子供の家",
    "lat": 35.70161964816004,
    "lng": 140.01222131547578,
    "details": {
      "number": "9",
      "address": "千葉県船橋市前原西4-30-22",
      "phone_number": "047-478-9172",
      "capacity": "41",
      "waiting_0yo": "*",
      "waiting_1yo": "*",
      "waiting_2yo": "*",
      "waiting_3yo": "0",
      "waiting_4yo": "0",
      "waiting_5yo": "0"
    }
  },
  {
    "name": "小規模保育所　リトルキディ",
    "lat": 35.7312965531781,
    "lng": 140.0579062467424,
    "details": {
      "number": "10",
      "address": "千葉県船橋市坪井東3-10-1グランソシア船橋芽吹の杜内",
      "phone_number": "047-436-8011",
      "capacity": "19",
      "waiting_0yo": "0",
      "waiting_1yo": "1",
      "waiting_2yo": "0",
      "waiting_3yo": "*",
      "waiting_4yo": "*",
      "waiting_5yo": "*"
    }
  },
  {
    "name": "うみのほいくえん",
    "lat": 35.697895151575324,
    "lng": 139.97838832665445,
    "details": {
      "number": "11",
      "address": "千葉県船橋市湊町2-2-20アソルティ船橋102/202",
      "phone_number": "047-468-8698",
      "capacity": "19",
      "waiting_0yo": "0",
      "waiting_1yo": "0",
      "waiting_2yo": "0",
      "waiting_3yo": "*",
      "waiting_4yo": "*",
      "waiting_5yo": "*"
    }
  },
  {
    "name": "パルパステル保育園",
    "lat": 35.70555048164533,
    "lng": 139.98540542243404,
    "details": {
      "number": "12",
      "address": "千葉県船橋市本町5-14-15 パルパステル",
      "phone_number": "047-460-6666",
      "capacity": "19",
      "waiting_0yo": "0",
      "waiting_1yo": "0",
      "waiting_2yo": "0",
      "waiting_3yo": "*",
      "waiting_4yo": "*",
      "waiting_5yo": "*"
    }
  },
  {
    "name": "キッズランド未来",
    "lat": 35.7570297264745,
    "lng": 140.02334411918227,
    "details": {
      "number": "13",
      "address": "千葉県船橋市二和東6-18-27　1階",
      "phone_number": "047-448-7735",
      "capacity": "19",
      "waiting_0yo": "0",
      "waiting_1yo": "0",
      "waiting_2yo": "0",
      "waiting_3yo": "*",
      "waiting_4yo": "*",
      "waiting_5yo": "*"
    }
  },
  {
    "name": "保育ルームキューティー",
    "lat": 35.705408705020055,
    "lng": 140.03004365528176,
    "details": {
      "number": "14",
      "address": "千葉県船橋市前原東5-18-4",
      "phone_number": "047-427-7643",
      "capacity": "19",
      "waiting_0yo": "0",
      "waiting_1yo": "0",
      "waiting_2yo": "0",
      "waiting_3yo": "*",
      "waiting_4yo": "*",
      "waiting_5yo": "*"
    }
  },
  {
    "name": "太陽の子　船橋三咲保育園",
    "lat": 35.7367129026127,
    "lng": 140.0194302780937,
    "details": {
      "number": "15",
      "address": "千葉県船橋市南三咲1-20-10",
      "phone_number": "047-440-6585",
      "capacity": "19",
      "waiting_0yo": "0",
      "waiting_1yo": "0",
      "waiting_2yo": "0",
      "waiting_3yo": "*",
      "waiting_4yo": "*",
      "waiting_5yo": "*"
    }
  },
  {
    "name": "ひだまり滝台保育園",
    "lat": 35.70891536991542,
    "lng": 140.03220732978428,
    "details": {
      "number": "16",
      "address": "千葉県船橋市滝台1-12-12",
      "phone_number": "047-436-8840",
      "capacity": "18",
      "waiting_0yo": "0",
      "waiting_1yo": "0",
      "waiting_2yo": "0",
      "waiting_3yo": "*",
      "waiting_4yo": "*",
      "waiting_5yo": "*"
    }
  },
  {
    "name": "京進のほいくえん　HOPPA船橋駅園",
    "lat": 35.7024938220111,
    "lng": 139.98529955557487,
    "details": {
      "number": "17",
      "address": "千葉県船橋市本町4-7-17",
      "phone_number": "047-405-2613",
      "capacity": "12",
      "waiting_0yo": "0",
      "waiting_1yo": "0",
      "waiting_2yo": "0",
      "waiting_3yo": "*",
      "waiting_4yo": "*",
      "waiting_5yo": "*"
    }
  },
  {
    "name": "京進のほいくえん　HOPPA津田沼園",
    "lat": 35.69697531955927,
    "lng": 140.01776703561413,
    "details": {
      "number": "18",
      "address": "千葉県船橋市前原西2-7-9-2F",
      "phone_number": "047-409-9571",
      "capacity": "19",
      "waiting_0yo": "0",
      "waiting_1yo": "0",
      "waiting_2yo": "0",
      "waiting_3yo": "*",
      "waiting_4yo": "*",
      "waiting_5yo": "*"
    }
  },
  {
    "name": "リトル・清和",
    "lat": 35.72994647848626,
    "lng": 139.9756712538286,
    "details": {
      "number": "19",
      "address": "千葉県船橋市前貝塚町646-8",
      "phone_number": "047-404-7516",
      "capacity": "15",
      "waiting_0yo": "*",
      "waiting_1yo": "0",
      "waiting_2yo": "1",
      "waiting_3yo": "*",
      "waiting_4yo": "*",
      "waiting_5yo": "*"
    }
  },
  {
    "name": "トレポンテ駅前保育園",
    "lat": 35.708194174123975,
    "lng": 139.98501134832472,
    "details": {
      "number": "20",
      "address": "千葉県船橋市本町6-8-1",
      "phone_number": "047-409-8816",
      "capacity": "19",
      "waiting_0yo": "0",
      "waiting_1yo": "0",
      "waiting_2yo": "0",
      "waiting_3yo": "*",
      "waiting_4yo": "*",
      "waiting_5yo": "*"
    }
  },
  {
    "name": "りりぱっとナーサリー津田沼園",
    "lat": 35.69697531955927,
    "lng": 140.01776703561413,
    "details": {
      "number": "21",
      "address": "千葉県船橋市前原西2-44-10",
      "phone_number": "047-405-2331",
      "capacity": "19",
      "waiting_0yo": "0",
      "waiting_1yo": "0",
      "waiting_2yo": "0",
      "waiting_3yo": "*",
      "waiting_4yo": "*",
      "waiting_5yo": "*"
    }
  },
  {
    "name": "りりぱっとナーサリー中山園",
    "lat": 35.71769093977806,
    "lng": 139.94180061702554,
    "details": {
      "number": "22",
      "address": "千葉県船橋市本中山2-23-16",
      "phone_number": "047-303-3038",
      "capacity": "12",
      "waiting_0yo": "0",
      "waiting_1yo": "0",
      "waiting_2yo": "0",
      "waiting_3yo": "*",
      "waiting_4yo": "*",
      "waiting_5yo": "*"
    }
  },
  {
    "name": "すずらん保育園",
    "lat": 35.70159861972839,
    "lng": 140.04803429028607,
    "details": {
      "number": "23",
      "address": "千葉県船橋市三山3-39-2",
      "phone_number": "047-409-9541",
      "capacity": "19",
      "waiting_0yo": "0",
      "waiting_1yo": "0",
      "waiting_2yo": "0",
      "waiting_3yo": "*",
      "waiting_4yo": "*",
      "waiting_5yo": "*"
    }
  },
  {
    "name": "健伸むぎの子保育園",
    "lat": 35.74843084159629,
    "lng": 139.99192212701968,
    "details": {
      "number": "24",
      "address": "千葉県船橋市丸山5-15-15",
      "phone_number": "047-404-8746",
      "capacity": "19",
      "waiting_0yo": "1",
      "waiting_1yo": "0",
      "waiting_2yo": "3",
      "waiting_3yo": "*",
      "waiting_4yo": "*",
      "waiting_5yo": "*"
    }
  },
  {
    "name": "クレヨンキッズ北習志野園",
    "lat": 35.729156176467036,
    "lng": 140.03513125866357,
    "details": {
      "number": "25",
      "address": "千葉県船橋市習志野台1-34-25",
      "phone_number": "047-456-4440",
      "capacity": "19",
      "waiting_0yo": "*",
      "waiting_1yo": "0",
      "waiting_2yo": "0",
      "waiting_3yo": "*",
      "waiting_4yo": "*",
      "waiting_5yo": "*"
    }
  },
  {
    "name": "Gakkenほいくえん 西船橋",
    "lat": 35.713103539824246,
    "lng": 139.94493753793864,
    "details": {
      "number": "26",
      "address": "千葉県船橋市二子町610",
      "phone_number": "047-302-7761",
      "capacity": "19",
      "waiting_0yo": "0",
      "waiting_1yo": "0",
      "waiting_2yo": "0",
      "waiting_3yo": "*",
      "waiting_4yo": "*",
      "waiting_5yo": "*"
    }
  },
  {
    "name": "東船橋色葉保育園",
    "lat": 35.70079751244574,
    "lng": 140.00379106139607,
    "details": {
      "number": "27",
      "address": "千葉県船橋市東船橋4-31-9",
      "phone_number": "047-460-2727",
      "capacity": "11",
      "waiting_0yo": "0",
      "waiting_1yo": "0",
      "waiting_2yo": "0",
      "waiting_3yo": "*",
      "waiting_4yo": "*",
      "waiting_5yo": "*"
    }
  },
  {
    "name": "リップル保育園　西船橋",
    "lat": 35.70952515678969,
    "lng": 139.95289800989266,
    "details": {
      "number": "28",
      "address": "千葉県船橋市葛飾町2-378-7",
      "phone_number": "047-401-5567",
      "capacity": "19",
      "waiting_0yo": "0",
      "waiting_1yo": "0",
      "waiting_2yo": "0",
      "waiting_3yo": "*",
      "waiting_4yo": "*",
      "waiting_5yo": "*"
    }
  },
  {
    "name": "ひかり保育園",
    "lat": 35.71910459084145,
    "lng": 140.045681776428,
    "details": {
      "number": "29",
      "address": "千葉県船橋市習志野台4-3-9",
      "phone_number": "047-456-6370",
      "capacity": "18",
      "waiting_0yo": "0",
      "waiting_1yo": "0",
      "waiting_2yo": "0",
      "waiting_3yo": "*",
      "waiting_4yo": "*",
      "waiting_5yo": "*"
    }
  },
  {
    "name": "ミアヘルサ保育園ひびき新船橋第二",
    "lat": 35.71637595682917,
    "lng": 139.97397194927908,
    "details": {
      "number": "30",
      "address": "千葉県船橋市山手1-3-17",
      "phone_number": "047-409-9055",
      "capacity": "19",
      "waiting_0yo": "0",
      "waiting_1yo": "1",
      "waiting_2yo": "0",
      "waiting_3yo": "*",
      "waiting_4yo": "*",
      "waiting_5yo": "*"
    }
  },
  {
    "name": "やきがやなかよし保育園",
    "lat": 35.764040119052225,
    "lng": 140.0299922710726,
    "details": {
      "number": "31",
      "address": "千葉県船橋市八木が谷2-18-1",
      "phone_number": "047-498-9367",
      "capacity": "19",
      "waiting_0yo": "*",
      "waiting_1yo": "0",
      "waiting_2yo": "1",
      "waiting_3yo": "*",
      "waiting_4yo": "*",
      "waiting_5yo": "*"
    }
  },
  {
    "name": "サンヴェルデ保育園",
    "lat": 35.7322962052415,
    "lng": 140.0122860619604,
    "details": {
      "number": "32",
      "address": "千葉県船橋市緑台2-4-17",
      "phone_number": "047-402-2270",
      "capacity": "19",
      "waiting_0yo": "*",
      "waiting_1yo": "0",
      "waiting_2yo": "0",
      "waiting_3yo": "*",
      "waiting_4yo": "*",
      "waiting_5yo": "*"
    }
  },
  {
    "name": "ひだまり保育園",
    "lat": 35.71576068855644,
    "lng": 140.03542677914317,
    "details": {
      "number": "33",
      "address": "千葉県船橋市薬円台6-1-1",
      "phone_number": "047-404-8511",
      "capacity": "18",
      "waiting_0yo": "0",
      "waiting_1yo": "0",
      "waiting_2yo": "0",
      "waiting_3yo": "*",
      "waiting_4yo": "*",
      "waiting_5yo": "*"
    }
  },
  {
    "name": "こりんご保育園",
    "lat": 35.701500288498536,
    "lng": 139.99842748618622,
    "details": {
      "number": "34",
      "address": "千葉県船橋市東船橋1-38-3-2F",
      "phone_number": "047-406-4380",
      "capacity": "15",
      "waiting_0yo": "0",
      "waiting_1yo": "0",
      "waiting_2yo": "0",
      "waiting_3yo": "*",
      "waiting_4yo": "*",
      "waiting_5yo": "*"
    }
  },
  {
    "name": "保育ルーム　サンライズ船橋",
    "lat": 35.70328459580345,
    "lng": 139.9802159532387,
    "details": {
      "number": "35",
      "address": "千葉県船橋市本町1-25-18",
      "phone_number": "047-422-0805",
      "capacity": "18",
      "waiting_0yo": "0",
      "waiting_1yo": "0",
      "waiting_2yo": "0",
      "waiting_3yo": "*",
      "waiting_4yo": "*",
      "waiting_5yo": "*"
    }
  },
  {
    "name": "キッズフィールド東船橋駅前園",
    "lat": 35.70079751244574,
    "lng": 140.00379106139607,
    "details": {
      "number": "36",
      "address": "千葉県船橋市東船橋4-31-7-201",
      "phone_number": "047-407-3948",
      "capacity": "19",
      "waiting_0yo": "0",
      "waiting_1yo": "0",
      "waiting_2yo": "0",
      "waiting_3yo": "*",
      "waiting_4yo": "*",
      "waiting_5yo": "*"
    }
  },
  {
    "name": "オーチャード・キッズ船橋馬込沢園",
    "lat": 35.74632585035236,
    "lng": 139.9835069245432,
    "details": {
      "number": "37",
      "address": "千葉県船橋市藤原7-3-1-5F",
      "phone_number": "047-468-8833",
      "capacity": "19",
      "waiting_0yo": "2",
      "waiting_1yo": "1",
      "waiting_2yo": "0",
      "waiting_3yo": "0",
      "waiting_4yo": "0",
      "waiting_5yo": "0"
    }
  },
  {
    "name": "すくすく北習志野ほいくえん",
    "lat": 35.72450993270231,
    "lng": 140.0437897161634,
    "details": {
      "number": "38",
      "address": "千葉県船橋市習志野台3-17-16",
      "phone_number": "047-769-7739",
      "capacity": "19",
      "waiting_0yo": "0",
      "waiting_1yo": "0",
      "waiting_2yo": "0",
      "waiting_3yo": "*",
      "waiting_4yo": "*",
      "waiting_5yo": "*"
    }
  },
  {
    "name": "保育ステーション　ハミングバード",
    "lat": 35.72450993270231,
    "lng": 140.0437897161634,
    "details": {
      "number": "39",
      "address": "千葉県船橋市習志野台3-1-1-3F",
      "phone_number": "047-401-4795",
      "capacity": "19",
      "waiting_0yo": "*",
      "waiting_1yo": "0",
      "waiting_2yo": "0",
      "waiting_3yo": "*",
      "waiting_4yo": "*",
      "waiting_5yo": "*"
    }
  },
  {
    "name": "前原ベイビーズ保育園",
    "lat": 35.705408705020055,
    "lng": 140.03004365528176,
    "details": {
      "number": "40",
      "address": "千葉県船橋市前原東5-16-15",
      "phone_number": "047-411-9185",
      "capacity": "19",
      "waiting_0yo": "0",
      "waiting_1yo": "0",
      "waiting_2yo": "0",
      "waiting_3yo": "*",
      "waiting_4yo": "*",
      "waiting_5yo": "*"
    }
  },
  {
    "name": "宮本第一保育園",
    "lat": 35.701880103910426,
    "lng": 139.99317791449786,
    "details": {
      "number": "41",
      "address": "千葉県船橋市宮本6-26-27",
      "phone_number": "047-422-5639",
      "capacity": "126",
      "waiting_0yo": "0",
      "waiting_1yo": "0",
      "waiting_2yo": "1",
      "waiting_3yo": "0",
      "waiting_4yo": "0",
      "waiting_5yo": "0"
    }
  },
  {
    "name": "宮本第二保育園",
    "lat": 35.693789128021294,
    "lng": 139.99745788144492,
    "details": {
      "number": "42",
      "address": "千葉県船橋市宮本8-9-10",
      "phone_number": "047-423-1304",
      "capacity": "168",
      "waiting_0yo": "0",
      "waiting_1yo": "0",
      "waiting_2yo": "0",
      "waiting_3yo": "1",
      "waiting_4yo": "0",
      "waiting_5yo": "0"
    }
  },
  {
    "name": "若松保育園",
    "lat": 35.68291921165739,
    "lng": 139.9924037500107,
    "details": {
      "number": "43",
      "address": "千葉県船橋市若松2-6-3",
      "phone_number": "047-433-4041",
      "capacity": "168",
      "waiting_0yo": "1",
      "waiting_1yo": "0",
      "waiting_2yo": "0",
      "waiting_3yo": "0",
      "waiting_4yo": "0",
      "waiting_5yo": "1"
    }
  },
  {
    "name": "湊町保育園",
    "lat": 35.69615646499767,
    "lng": 139.98276202751023,
    "details": {
      "number": "44",
      "address": "千葉県船橋市湊町1-16-23",
      "phone_number": "047-431-4961",
      "capacity": "277",
      "waiting_0yo": "0",
      "waiting_1yo": "1",
      "waiting_2yo": "0",
      "waiting_3yo": "0",
      "waiting_4yo": "0",
      "waiting_5yo": "0"
    }
  },
  {
    "name": "千鳥保育園",
    "lat": 35.69947287635658,
    "lng": 139.97475956937996,
    "details": {
      "number": "45",
      "address": "千葉県船橋市南本町13-1",
      "phone_number": "047-431-5061",
      "capacity": "213",
      "waiting_0yo": "0",
      "waiting_1yo": "0",
      "waiting_2yo": "0",
      "waiting_3yo": "0",
      "waiting_4yo": "0",
      "waiting_5yo": "0"
    }
  },
  {
    "name": "中央保育園",
    "lat": 35.7024938220111,
    "lng": 139.98529955557487,
    "details": {
      "number": "46",
      "address": "千葉県船橋市本町4-17-21",
      "phone_number": "047-422-4762",
      "capacity": "209",
      "waiting_0yo": "0",
      "waiting_1yo": "0",
      "waiting_2yo": "1",
      "waiting_3yo": "0",
      "waiting_4yo": "0",
      "waiting_5yo": "0"
    }
  },
  {
    "name": "本町保育園",
    "lat": 35.708194174123975,
    "lng": 139.98501134832472,
    "details": {
      "number": "47",
      "address": "千葉県船橋市本町6-7-18",
      "phone_number": "047-424-7011",
      "capacity": "140",
      "waiting_0yo": "0",
      "waiting_1yo": "1",
      "waiting_2yo": "1",
      "waiting_3yo": "0",
      "waiting_4yo": "0",
      "waiting_5yo": "0"
    }
  },
  {
    "name": "海神第一保育園",
    "lat": 35.70943782497214,
    "lng": 139.97726195301595,
    "details": {
      "number": "48",
      "address": "千葉県船橋市海神2-13-25",
      "phone_number": "047-422-2462",
      "capacity": "244",
      "waiting_0yo": "1",
      "waiting_1yo": "2",
      "waiting_2yo": "1",
      "waiting_3yo": "0",
      "waiting_4yo": "0",
      "waiting_5yo": "0"
    }
  },
  {
    "name": "海神第二保育園",
    "lat": 35.70328459580345,
    "lng": 139.9802159532387,
    "details": {
      "number": "49",
      "address": "千葉県船橋市本町1-23-7",
      "phone_number": "047-435-0783",
      "capacity": "75",
      "waiting_0yo": "0",
      "waiting_1yo": "0",
      "waiting_2yo": "0",
      "waiting_3yo": "0",
      "waiting_4yo": "0",
      "waiting_5yo": "0"
    }
  },
  {
    "name": "西船保育園",
    "lat": 35.71796520921958,
    "lng": 139.9529146656931,
    "details": {
      "number": "50",
      "address": "千葉県船橋市西船6-1-24",
      "phone_number": "047-333-8187",
      "capacity": "150",
      "waiting_0yo": "0",
      "waiting_1yo": "3",
      "waiting_2yo": "1",
      "waiting_3yo": "2",
      "waiting_4yo": "0",
      "waiting_5yo": "0"
    }
  },
  {
    "name": "本中山保育園",
    "lat": 35.710585664484206,
    "lng": 139.93908113557904,
    "details": {
      "number": "51",
      "address": "千葉県船橋市本中山5-6-1",
      "phone_number": "047-333-6451",
      "capacity": "155",
      "waiting_0yo": "0",
      "waiting_1yo": "1",
      "waiting_2yo": "0",
      "waiting_3yo": "1",
      "waiting_4yo": "1",
      "waiting_5yo": "0"
    }
  },
  {
    "name": "若葉保育園",
    "lat": 35.74632585035236,
    "lng": 139.9835069245432,
    "details": {
      "number": "52",
      "address": "千葉県船橋市藤原7-41-1",
      "phone_number": "047-439-0472",
      "capacity": "163",
      "waiting_0yo": "3",
      "waiting_1yo": "16",
      "waiting_2yo": "1",
      "waiting_3yo": "4",
      "waiting_4yo": "1",
      "waiting_5yo": "0"
    }
  },
  {
    "name": "行田保育園",
    "lat": 35.72314297965766,
    "lng": 139.96594135341883,
    "details": {
      "number": "53",
      "address": "千葉県船橋市行田3-1-2",
      "phone_number": "047-439-5000",
      "capacity": "201",
      "waiting_0yo": "0",
      "waiting_1yo": "2",
      "waiting_2yo": "2",
      "waiting_3yo": "0",
      "waiting_4yo": "0",
      "waiting_5yo": "0"
    }
  },
  {
    "name": "夏見第一保育園",
    "lat": 35.718216108089756,
    "lng": 139.98720975506657,
    "details": {
      "number": "54",
      "address": "千葉県船橋市夏見4-10-26",
      "phone_number": "047-422-5198",
      "capacity": "147",
      "waiting_0yo": "2",
      "waiting_1yo": "0",
      "waiting_2yo": "0",
      "waiting_3yo": "1",
      "waiting_4yo": "0",
      "waiting_5yo": "0"
    }
  },
  {
    "name": "夏見第二保育園",
    "lat": 35.728270105964235,
    "lng": 139.9919079488707,
    "details": {
      "number": "55",
      "address": "千葉県船橋市夏見台4-1-1",
      "phone_number": "047-439-6231",
      "capacity": "150",
      "waiting_0yo": "0",
      "waiting_1yo": "0",
      "waiting_2yo": "0",
      "waiting_3yo": "0",
      "waiting_4yo": "0",
      "waiting_5yo": "0"
    }
  },
  {
    "name": "高根保育園",
    "lat": 35.732916393310944,
    "lng": 140.02180523194124,
    "details": {
      "number": "56",
      "address": "千葉県船橋市新高根4-19-2",
      "phone_number": "047-463-1418",
      "capacity": "165",
      "waiting_0yo": "2",
      "waiting_1yo": "0",
      "waiting_2yo": "0",
      "waiting_3yo": "0",
      "waiting_4yo": "0",
      "waiting_5yo": "0"
    }
  },
  {
    "name": "金杉台保育園",
    "lat": 35.73946726379021,
    "lng": 140.00726219473825,
    "details": {
      "number": "57",
      "address": "千葉県船橋市金杉台1-1-6",
      "phone_number": "047-447-0022",
      "capacity": "120",
      "waiting_0yo": "0",
      "waiting_1yo": "0",
      "waiting_2yo": "0",
      "waiting_3yo": "0",
      "waiting_4yo": "0",
      "waiting_5yo": "0"
    }
  },
  {
    "name": "二和保育園",
    "lat": 35.75587975253308,
    "lng": 140.01953748796797,
    "details": {
      "number": "58",
      "address": "千葉県船橋市二和東5-50-1",
      "phone_number": "047-447-0801",
      "capacity": "147",
      "waiting_0yo": "0",
      "waiting_1yo": "1",
      "waiting_2yo": "3",
      "waiting_3yo": "1",
      "waiting_4yo": "1",
      "waiting_5yo": "0"
    }
  },
  {
    "name": "三山保育園",
    "lat": 35.70461341733337,
    "lng": 140.05305674331228,
    "details": {
      "number": "59",
      "address": "千葉県船橋市三山6-26-26",
      "phone_number": "047-476-2701",
      "capacity": "162",
      "waiting_0yo": "1",
      "waiting_1yo": "1",
      "waiting_2yo": "1",
      "waiting_3yo": "0",
      "waiting_4yo": "0",
      "waiting_5yo": "0"
    }
  },
  {
    "name": "二宮保育園",
    "lat": 35.70462147415973,
    "lng": 140.018246684207,
    "details": {
      "number": "60",
      "address": "千葉県船橋市前原西6-1-12",
      "phone_number": "047-472-1097",
      "capacity": "195",
      "waiting_0yo": "0",
      "waiting_1yo": "1",
      "waiting_2yo": "0",
      "waiting_3yo": "1",
      "waiting_4yo": "0",
      "waiting_5yo": "0"
    }
  },
  {
    "name": "習志野台第一保育園",
    "lat": 35.728515441203754,
    "lng": 140.04224868322805,
    "details": {
      "number": "61",
      "address": "千葉県船橋市習志野台2-50-3",
      "phone_number": "047-465-4124",
      "capacity": "248",
      "waiting_0yo": "1",
      "waiting_1yo": "5",
      "waiting_2yo": "1",
      "waiting_3yo": "0",
      "waiting_4yo": "0",
      "waiting_5yo": "0"
    }
  },
  {
    "name": "習志野台第二保育園",
    "lat": 35.72727977290556,
    "lng": 140.04937113166727,
    "details": {
      "number": "62",
      "address": "千葉県船橋市習志野台6-7-1",
      "phone_number": "047-464-3818",
      "capacity": "152",
      "waiting_0yo": "0",
      "waiting_1yo": "1",
      "waiting_2yo": "1",
      "waiting_3yo": "0",
      "waiting_4yo": "1",
      "waiting_5yo": "0"
    }
  },
  {
    "name": "高根台保育園",
    "lat": 35.736640184690685,
    "lng": 140.02954442602208,
    "details": {
      "number": "63",
      "address": "千葉県船橋市高根台2-2-2",
      "phone_number": "047-466-2611",
      "capacity": "200",
      "waiting_0yo": "0",
      "waiting_1yo": "0",
      "waiting_2yo": "0",
      "waiting_3yo": "0",
      "waiting_4yo": "0",
      "waiting_5yo": "0"
    }
  },
  {
    "name": "緑台保育園",
    "lat": 35.7322962052415,
    "lng": 140.0122860619604,
    "details": {
      "number": "64",
      "address": "千葉県船橋市緑台2-4-11",
      "phone_number": "047-447-9122",
      "capacity": "120",
      "waiting_0yo": "0",
      "waiting_1yo": "0",
      "waiting_2yo": "0",
      "waiting_3yo": "0",
      "waiting_4yo": "0",
      "waiting_5yo": "0"
    }
  },
  {
    "name": "芝山第一保育園",
    "lat": 35.720392731690005,
    "lng": 140.019292954174,
    "details": {
      "number": "65",
      "address": "千葉県船橋市芝山3-10-4",
      "phone_number": "047-462-7575",
      "capacity": "187",
      "waiting_0yo": "0",
      "waiting_1yo": "4",
      "waiting_2yo": "0",
      "waiting_3yo": "0",
      "waiting_4yo": "0",
      "waiting_5yo": "0"
    }
  },
  {
    "name": "小室保育園",
    "lat": 35.793968896686074,
    "lng": 140.07202649420276,
    "details": {
      "number": "66",
      "address": "千葉県船橋市小室町3305",
      "phone_number": "047-457-1717",
      "capacity": "120",
      "waiting_0yo": "1",
      "waiting_1yo": "0",
      "waiting_2yo": "0",
      "waiting_3yo": "1",
      "waiting_4yo": "0",
      "waiting_5yo": "1"
    }
  },
  {
    "name": "浜町保育園",
    "lat": 35.6934038830101,
    "lng": 139.98679379847366,
    "details": {
      "number": "67",
      "address": "千葉県船橋市浜町1-1-1",
      "phone_number": "047-431-3262",
      "capacity": "143",
      "waiting_0yo": "0",
      "waiting_1yo": "0",
      "waiting_2yo": "0",
      "waiting_3yo": "0",
      "waiting_4yo": "0",
      "waiting_5yo": "0"
    }
  },
  {
    "name": "めぐみ保育園",
    "lat": 35.716443830259855,
    "lng": 140.0434920698002,
    "details": {
      "number": "68",
      "address": "千葉県船橋市薬円台4-6-1",
      "phone_number": "047-466-0566",
      "capacity": "222",
      "waiting_0yo": "1",
      "waiting_1yo": "6",
      "waiting_2yo": "2",
      "waiting_3yo": "1",
      "waiting_4yo": "0",
      "waiting_5yo": "0"
    }
  },
  {
    "name": "中山あけぼの保育園",
    "lat": 35.71485023423418,
    "lng": 139.94088780960266,
    "details": {
      "number": "69",
      "address": "千葉県船橋市本中山3-19-3",
      "phone_number": "047-334-9950",
      "capacity": "170",
      "waiting_0yo": "0",
      "waiting_1yo": "0",
      "waiting_2yo": "0",
      "waiting_3yo": "0",
      "waiting_4yo": "0",
      "waiting_5yo": "0"
    }
  },
  {
    "name": "ひばり保育園",
    "lat": 35.73840323805497,
    "lng": 140.0388235698174,
    "details": {
      "number": "70",
      "address": "千葉県船橋市松が丘1-33-4",
      "phone_number": "047-466-5915",
      "capacity": "120",
      "waiting_0yo": "0",
      "waiting_1yo": "0",
      "waiting_2yo": "0",
      "waiting_3yo": "0",
      "waiting_4yo": "0",
      "waiting_5yo": "0"
    }
  },
  {
    "name": "杉の子保育園",
    "lat": 35.7344281827465,
    "lng": 140.02029929768048,
    "details": {
      "number": "71",
      "address": "千葉県船橋市新高根3-8-1",
      "phone_number": "047-465-2336",
      "capacity": "120",
      "waiting_0yo": "0",
      "waiting_1yo": "0",
      "waiting_2yo": "0",
      "waiting_3yo": "0",
      "waiting_4yo": "0",
      "waiting_5yo": "0"
    }
  },
  {
    "name": "しらゆり保育園",
    "lat": 35.72021270995254,
    "lng": 139.98077921765457,
    "details": {
      "number": "72",
      "address": "千葉県船橋市北本町2-47-7",
      "phone_number": "047-422-5051",
      "capacity": "100",
      "waiting_0yo": "1",
      "waiting_1yo": "3",
      "waiting_2yo": "1",
      "waiting_3yo": "0",
      "waiting_4yo": "0",
      "waiting_5yo": "0"
    }
  },
  {
    "name": "あすなろ保育園",
    "lat": 35.746270592178846,
    "lng": 140.01068262838803,
    "details": {
      "number": "73",
      "address": "千葉県船橋市二和西2-6-1",
      "phone_number": "047-447-0023",
      "capacity": "120",
      "waiting_0yo": "1",
      "waiting_1yo": "0",
      "waiting_2yo": "0",
      "waiting_3yo": "0",
      "waiting_4yo": "0",
      "waiting_5yo": "0"
    }
  },
  {
    "name": "たかね台ベビーホーム",
    "lat": 35.734682335027564,
    "lng": 140.026976722839,
    "details": {
      "number": "74",
      "address": "千葉県船橋市高根台1-9-23-201",
      "phone_number": "047-465-1100",
      "capacity": "30",
      "waiting_0yo": "0",
      "waiting_1yo": "0",
      "waiting_2yo": "0",
      "waiting_3yo": "*",
      "waiting_4yo": "*",
      "waiting_5yo": "*"
    }
  },
  {
    "name": "まこと保育園",
    "lat": 35.7653964627565,
    "lng": 140.04829066852852,
    "details": {
      "number": "75",
      "address": "千葉県船橋市神保町275-34",
      "phone_number": "047-457-1685",
      "capacity": "150",
      "waiting_0yo": "0",
      "waiting_1yo": "0",
      "waiting_2yo": "0",
      "waiting_3yo": "0",
      "waiting_4yo": "0",
      "waiting_5yo": "0"
    }
  },
  {
    "name": "まこと保育園分園",
    "lat": 35.728515441203754,
    "lng": 140.04224868322805,
    "details": {
      "number": "76",
      "address": "千葉県船橋市習志野台2-73-9",
      "phone_number": "047-465-0230",
      "capacity": "29",
      "waiting_0yo": "0",
      "waiting_1yo": "0",
      "waiting_2yo": "0",
      "waiting_3yo": "*",
      "waiting_4yo": "*",
      "waiting_5yo": "*"
    }
  },
  {
    "name": "三咲小鳩保育園",
    "lat": 35.75522510861987,
    "lng": 140.02996563287687,
    "details": {
      "number": "77",
      "address": "千葉県船橋市三咲3-6-2",
      "phone_number": "047-447-7612",
      "capacity": "300",
      "waiting_0yo": "0",
      "waiting_1yo": "0",
      "waiting_2yo": "0",
      "waiting_3yo": "0",
      "waiting_4yo": "0",
      "waiting_5yo": "0"
    }
  },
  {
    "name": "てまり保育園",
    "lat": 35.74358502742816,
    "lng": 139.97867044523352,
    "details": {
      "number": "78",
      "address": "千葉県船橋市藤原5-4-39",
      "phone_number": "047-438-0073",
      "capacity": "130",
      "waiting_0yo": "0",
      "waiting_1yo": "2",
      "waiting_2yo": "1",
      "waiting_3yo": "1",
      "waiting_4yo": "0",
      "waiting_5yo": "0"
    }
  },
  {
    "name": "みどり保育園",
    "lat": 35.70558079012907,
    "lng": 139.99694044604777,
    "details": {
      "number": "79",
      "address": "千葉県船橋市市場4-12-3",
      "phone_number": "047-424-4152",
      "capacity": "120",
      "waiting_0yo": "0",
      "waiting_1yo": "2",
      "waiting_2yo": "1",
      "waiting_3yo": "0",
      "waiting_4yo": "0",
      "waiting_5yo": "0"
    }
  },
  {
    "name": "三山つくし保育園",
    "lat": 35.69689742368673,
    "lng": 140.05823861962023,
    "details": {
      "number": "80",
      "address": "千葉県船橋市三山9-31-7",
      "phone_number": "047-473-4435",
      "capacity": "143",
      "waiting_0yo": "0",
      "waiting_1yo": "0",
      "waiting_2yo": "0",
      "waiting_3yo": "0",
      "waiting_4yo": "0",
      "waiting_5yo": "0"
    }
  },
  {
    "name": "アンデルセン保育園",
    "lat": 35.729048661475,
    "lng": 140.0525887876878,
    "details": {
      "number": "81",
      "address": "千葉県船橋市習志野台7-8-21",
      "phone_number": "047-462-8111",
      "capacity": "120",
      "waiting_0yo": "1",
      "waiting_1yo": "0",
      "waiting_2yo": "2",
      "waiting_3yo": "1",
      "waiting_4yo": "0",
      "waiting_5yo": "0"
    }
  },
  {
    "name": "やまびこ保育園",
    "lat": 35.7629609565884,
    "lng": 140.01952320042523,
    "details": {
      "number": "82",
      "address": "千葉県船橋市咲が丘2-11-5",
      "phone_number": "047-449-0225",
      "capacity": "160",
      "waiting_0yo": "0",
      "waiting_1yo": "1",
      "waiting_2yo": "0",
      "waiting_3yo": "1",
      "waiting_4yo": "0",
      "waiting_5yo": "0"
    }
  },
  {
    "name": "弥生保育園",
    "lat": 35.71485023423418,
    "lng": 139.94088780960266,
    "details": {
      "number": "83",
      "address": "千葉県船橋市本中山3-4-18",
      "phone_number": "047-332-7280",
      "capacity": "150",
      "waiting_0yo": "0",
      "waiting_1yo": "0",
      "waiting_2yo": "1",
      "waiting_3yo": "0",
      "waiting_4yo": "0",
      "waiting_5yo": "0"
    }
  },
  {
    "name": "かもめ保育園",
    "lat": 35.72863389935392,
    "lng": 140.02273232796279,
    "details": {
      "number": "84",
      "address": "千葉県船橋市新高根6-43-3",
      "phone_number": "047-466-5553",
      "capacity": "90",
      "waiting_0yo": "0",
      "waiting_1yo": "0",
      "waiting_2yo": "0",
      "waiting_3yo": "0",
      "waiting_4yo": "0",
      "waiting_5yo": "0"
    }
  },
  {
    "name": "かもめ保育園芝山分園",
    "lat": 35.720392731690005,
    "lng": 140.019292954174,
    "details": {
      "number": "85",
      "address": "千葉県船橋市芝山3-10-8",
      "phone_number": "047-456-4353",
      "capacity": "29",
      "waiting_0yo": "0",
      "waiting_1yo": "0",
      "waiting_2yo": "0",
      "waiting_3yo": "*",
      "waiting_4yo": "*",
      "waiting_5yo": "*"
    }
  },
  {
    "name": "前原保育園",
    "lat": 35.70687840490387,
    "lng": 140.02505101739038,
    "details": {
      "number": "86",
      "address": "千葉県船橋市前原西8-23-5",
      "phone_number": "047-465-2429",
      "capacity": "90",
      "waiting_0yo": "0",
      "waiting_1yo": "0",
      "waiting_2yo": "0",
      "waiting_3yo": "0",
      "waiting_4yo": "0",
      "waiting_5yo": "0"
    }
  },
  {
    "name": "ベル・ナーサリー",
    "lat": 35.724167125462955,
    "lng": 139.9755894957639,
    "details": {
      "number": "87",
      "address": "千葉県船橋市行田1-49-1",
      "phone_number": "047-430-0086",
      "capacity": "60",
      "waiting_0yo": "0",
      "waiting_1yo": "0",
      "waiting_2yo": "0",
      "waiting_3yo": "*",
      "waiting_4yo": "*",
      "waiting_5yo": "*"
    }
  },
  {
    "name": "アンデルセン第二保育園",
    "lat": 35.72002864254014,
    "lng": 140.05142025391277,
    "details": {
      "number": "88",
      "address": "千葉県船橋市習志野台5-43-3",
      "phone_number": "047-468-4686",
      "capacity": "70",
      "waiting_0yo": "0",
      "waiting_1yo": "0",
      "waiting_2yo": "1",
      "waiting_3yo": "0",
      "waiting_4yo": "0",
      "waiting_5yo": "0"
    }
  },
  {
    "name": "西船みどり保育園",
    "lat": 35.710437305663035,
    "lng": 139.96220018610225,
    "details": {
      "number": "89",
      "address": "千葉県船橋市西船1-21-50",
      "phone_number": "047-435-4152",
      "capacity": "100",
      "waiting_0yo": "0",
      "waiting_1yo": "3",
      "waiting_2yo": "0",
      "waiting_3yo": "0",
      "waiting_4yo": "0",
      "waiting_5yo": "0"
    }
  },
  {
    "name": "アリスなかよし保育園",
    "lat": 35.716115728917735,
    "lng": 139.9644587643995,
    "details": {
      "number": "90",
      "address": "千葉県船橋市西船2-29-28",
      "phone_number": "047-436-1212",
      "capacity": "90",
      "waiting_0yo": "0",
      "waiting_1yo": "0",
      "waiting_2yo": "0",
      "waiting_3yo": "0",
      "waiting_4yo": "0",
      "waiting_5yo": "0"
    }
  },
  {
    "name": "ロータス保育園",
    "lat": 35.74358502742816,
    "lng": 139.97867044523352,
    "details": {
      "number": "91",
      "address": "千葉県船橋市藤原5-23-2",
      "phone_number": "047-439-6663",
      "capacity": "60",
      "waiting_0yo": "0",
      "waiting_1yo": "1",
      "waiting_2yo": "0",
      "waiting_3yo": "1",
      "waiting_4yo": "0",
      "waiting_5yo": "0"
    }
  },
  {
    "name": "海神南保育園",
    "lat": 35.70395807467442,
    "lng": 139.9637303198376,
    "details": {
      "number": "92",
      "address": "千葉県船橋市海神町南1-1627-2",
      "phone_number": "047-411-6543",
      "capacity": "80",
      "waiting_0yo": "0",
      "waiting_1yo": "0",
      "waiting_2yo": "0",
      "waiting_3yo": "0",
      "waiting_4yo": "0",
      "waiting_5yo": "0"
    }
  },
  {
    "name": "前原ひまわり保育園",
    "lat": 35.70161964816004,
    "lng": 140.01222131547578,
    "details": {
      "number": "93",
      "address": "千葉県船橋市前原西4-18-19",
      "phone_number": "047-474-7788",
      "capacity": "110",
      "waiting_0yo": "0",
      "waiting_1yo": "0",
      "waiting_2yo": "1",
      "waiting_3yo": "0",
      "waiting_4yo": "0",
      "waiting_5yo": "0"
    }
  },
  {
    "name": "夏見台保育園",
    "lat": 35.72224580585412,
    "lng": 139.99276812120198,
    "details": {
      "number": "94",
      "address": "千葉県船橋市夏見台2-16-1",
      "phone_number": "047-429-7231",
      "capacity": "60",
      "waiting_0yo": "0",
      "waiting_1yo": "4",
      "waiting_2yo": "1",
      "waiting_3yo": "0",
      "waiting_4yo": "0",
      "waiting_5yo": "0"
    }
  },
  {
    "name": "プレスクール・ベル",
    "lat": 35.71121346217788,
    "lng": 139.97121739200153,
    "details": {
      "number": "95",
      "address": "千葉県船橋市海神4-23-16",
      "phone_number": "047-410-0311",
      "capacity": "100",
      "waiting_0yo": "*",
      "waiting_1yo": "*",
      "waiting_2yo": "*",
      "waiting_3yo": "0",
      "waiting_4yo": "0",
      "waiting_5yo": "0"
    }
  },
  {
    "name": "みそら保育園",
    "lat": 35.719959879813096,
    "lng": 139.94901591446862,
    "details": {
      "number": "96",
      "address": "千葉県船橋市東中山2-1-20",
      "phone_number": "047-302-2505",
      "capacity": "90",
      "waiting_0yo": "0",
      "waiting_1yo": "3",
      "waiting_2yo": "1",
      "waiting_3yo": "0",
      "waiting_4yo": "0",
      "waiting_5yo": "0"
    }
  },
  {
    "name": "さくら保育園",
    "lat": 35.713103539824246,
    "lng": 139.94493753793864,
    "details": {
      "number": "97",
      "address": "千葉県船橋市二子町474",
      "phone_number": "047-302-8301",
      "capacity": "120",
      "waiting_0yo": "0",
      "waiting_1yo": "2",
      "waiting_2yo": "1",
      "waiting_3yo": "0",
      "waiting_4yo": "0",
      "waiting_5yo": "0"
    }
  },
  {
    "name": "印内保育園",
    "lat": 35.71942621138464,
    "lng": 139.95906808583425,
    "details": {
      "number": "98",
      "address": "千葉県船橋市印内2-2-31",
      "phone_number": "047-433-8368",
      "capacity": "60",
      "waiting_0yo": "0",
      "waiting_1yo": "2",
      "waiting_2yo": "0",
      "waiting_3yo": "0",
      "waiting_4yo": "0",
      "waiting_5yo": "0"
    }
  },
  {
    "name": "船橋あおぞら保育園",
    "lat": 35.75522510861987,
    "lng": 140.02996563287687,
    "details": {
      "number": "99",
      "address": "千葉県船橋市三咲3-12-55",
      "phone_number": "047-407-9870",
      "capacity": "60",
      "waiting_0yo": "0",
      "waiting_1yo": "0",
      "waiting_2yo": "0",
      "waiting_3yo": "0",
      "waiting_4yo": "0",
      "waiting_5yo": "0"
    }
  },
  {
    "name": "船橋あおぞら保育園分園",
    "lat": 35.7570297264745,
    "lng": 140.02334411918227,
    "details": {
      "number": "100",
      "address": "千葉県船橋市二和東6-16-10　エバラビル2階",
      "phone_number": "047-440-8977",
      "capacity": "15",
      "waiting_0yo": "0",
      "waiting_1yo": "0",
      "waiting_2yo": "0",
      "waiting_3yo": "*",
      "waiting_4yo": "*",
      "waiting_5yo": "*"
    }
  },
  {
    "name": "ククルなかよし保育園",
    "lat": 35.714039547996066,
    "lng": 139.98613201599295,
    "details": {
      "number": "101",
      "address": "千葉県船橋市夏見2-11-43",
      "phone_number": "047-424-0101",
      "capacity": "150",
      "waiting_0yo": "0",
      "waiting_1yo": "2",
      "waiting_2yo": "0",
      "waiting_3yo": "0",
      "waiting_4yo": "0",
      "waiting_5yo": "0"
    }
  },
  {
    "name": "なないろ保育園",
    "lat": 35.724167125462955,
    "lng": 139.9755894957639,
    "details": {
      "number": "102",
      "address": "千葉県船橋市行田1-39-5",
      "phone_number": "047-407-1201",
      "capacity": "100",
      "waiting_0yo": "0",
      "waiting_1yo": "0",
      "waiting_2yo": "0",
      "waiting_3yo": "0",
      "waiting_4yo": "0",
      "waiting_5yo": "0"
    }
  },
  {
    "name": "ローゼンかみやま保育園",
    "lat": 35.73608173617207,
    "lng": 139.9737081703131,
    "details": {
      "number": "103",
      "address": "千葉県船橋市上山町2-288-1",
      "phone_number": "047-406-6010",
      "capacity": "90",
      "waiting_0yo": "0",
      "waiting_1yo": "7",
      "waiting_2yo": "1",
      "waiting_3yo": "0",
      "waiting_4yo": "1",
      "waiting_5yo": "0"
    }
  },
  {
    "name": "こでまり保育園",
    "lat": 35.73600950281624,
    "lng": 139.96477892859846,
    "details": {
      "number": "104",
      "address": "千葉県船橋市藤原2-2-22",
      "phone_number": "047-703-7700",
      "capacity": "60",
      "waiting_0yo": "0",
      "waiting_1yo": "3",
      "waiting_2yo": "0",
      "waiting_3yo": "0",
      "waiting_4yo": "0",
      "waiting_5yo": "0"
    }
  },
  {
    "name": "はさま保育園",
    "lat": 35.71860215272874,
    "lng": 140.02741934019858,
    "details": {
      "number": "105",
      "address": "千葉県船橋市飯山満町3-1512-1",
      "phone_number": "047-467-1999",
      "capacity": "115",
      "waiting_0yo": "0",
      "waiting_1yo": "3",
      "waiting_2yo": "0",
      "waiting_3yo": "0",
      "waiting_4yo": "0",
      "waiting_5yo": "0"
    }
  },
  {
    "name": "美しが丘保育園",
    "lat": 35.73145860812692,
    "lng": 140.06060501209555,
    "details": {
      "number": "106",
      "address": "千葉県船橋市坪井東5-18-30",
      "phone_number": "047-457-8806",
      "capacity": "60",
      "waiting_0yo": "1",
      "waiting_1yo": "1",
      "waiting_2yo": "0",
      "waiting_3yo": "0",
      "waiting_4yo": "0",
      "waiting_5yo": "0"
    }
  },
  {
    "name": "船橋ピコレール保育園",
    "lat": 35.697435451173334,
    "lng": 139.98756356966473,
    "details": {
      "number": "107",
      "address": "千葉県船橋市宮本2-6-26",
      "phone_number": "047-425-5057",
      "capacity": "60",
      "waiting_0yo": "0",
      "waiting_1yo": "0",
      "waiting_2yo": "0",
      "waiting_3yo": "0",
      "waiting_4yo": "0",
      "waiting_5yo": "0"
    }
  },
  {
    "name": "なの花保育園",
    "lat": 35.716010907323536,
    "lng": 140.00760112076904,
    "details": {
      "number": "108",
      "address": "千葉県船橋市飯山満町1-967-1",
      "phone_number": "047-405-9512",
      "capacity": "90",
      "waiting_0yo": "0",
      "waiting_1yo": "2",
      "waiting_2yo": "0",
      "waiting_3yo": "0",
      "waiting_4yo": "0",
      "waiting_5yo": "1"
    }
  },
  {
    "name": "ベル・ナーサリー・アスール",
    "lat": 35.709631728464096,
    "lng": 139.97449717892113,
    "details": {
      "number": "109",
      "address": "千葉県船橋市海神3-30-1",
      "phone_number": "047-432-1717",
      "capacity": "60",
      "waiting_0yo": "0",
      "waiting_1yo": "0",
      "waiting_2yo": "0",
      "waiting_3yo": "0",
      "waiting_4yo": "0",
      "waiting_5yo": "0"
    }
  },
  {
    "name": "たちばな保育園",
    "lat": 35.69697531955927,
    "lng": 140.01776703561413,
    "details": {
      "number": "110",
      "address": "千葉県船橋市前原西2-24-10",
      "phone_number": "047-470-3745",
      "capacity": "130",
      "waiting_0yo": "1",
      "waiting_1yo": "3",
      "waiting_2yo": "0",
      "waiting_3yo": "0",
      "waiting_4yo": "0",
      "waiting_5yo": "0"
    }
  },
  {
    "name": "南船橋保育園",
    "lat": 35.68291921165739,
    "lng": 139.9924037500107,
    "details": {
      "number": "111",
      "address": "千葉県船橋市若松2-3-15",
      "phone_number": "047-401-5115",
      "capacity": "140",
      "waiting_0yo": "1",
      "waiting_1yo": "0",
      "waiting_2yo": "0",
      "waiting_3yo": "0",
      "waiting_4yo": "0",
      "waiting_5yo": "0"
    }
  },
  {
    "name": "高根台グリーンキディ保育園",
    "lat": 35.736640184690685,
    "lng": 140.02954442602208,
    "details": {
      "number": "112",
      "address": "千葉県船橋市高根台2-10-5",
      "phone_number": "047-465-5900",
      "capacity": "78",
      "waiting_0yo": "0",
      "waiting_1yo": "0",
      "waiting_2yo": "0",
      "waiting_3yo": "0",
      "waiting_4yo": "0",
      "waiting_5yo": "0"
    }
  },
  {
    "name": "アポロンの丘",
    "lat": 35.728515441203754,
    "lng": 140.04224868322805,
    "details": {
      "number": "113",
      "address": "千葉県船橋市習志野台2-59-22",
      "phone_number": "047-404-5427",
      "capacity": "48",
      "waiting_0yo": "0",
      "waiting_1yo": "0",
      "waiting_2yo": "0",
      "waiting_3yo": "*",
      "waiting_4yo": "*",
      "waiting_5yo": "*"
    }
  },
  {
    "name": "リサ保育園",
    "lat": 35.70395807467442,
    "lng": 139.9637303198376,
    "details": {
      "number": "114",
      "address": "千葉県船橋市海神町南1-728",
      "phone_number": "047-404-5621",
      "capacity": "90",
      "waiting_0yo": "0",
      "waiting_1yo": "3",
      "waiting_2yo": "0",
      "waiting_3yo": "0",
      "waiting_4yo": "0",
      "waiting_5yo": "0"
    }
  },
  {
    "name": "シーガル保育園",
    "lat": 35.71235257208569,
    "lng": 140.01698747618616,
    "details": {
      "number": "115",
      "address": "千葉県船橋市飯山満町2-1007-1",
      "phone_number": "047-404-7611",
      "capacity": "120",
      "waiting_0yo": "0",
      "waiting_1yo": "5",
      "waiting_2yo": "0",
      "waiting_3yo": "0",
      "waiting_4yo": "0",
      "waiting_5yo": "0"
    }
  },
  {
    "name": "敬心ゆめ保育園",
    "lat": 35.70437313771068,
    "lng": 140.0047788325702,
    "details": {
      "number": "116",
      "address": "千葉県船橋市東船橋3-15-8",
      "phone_number": "047-411-5725",
      "capacity": "110",
      "waiting_0yo": "0",
      "waiting_1yo": "4",
      "waiting_2yo": "0",
      "waiting_3yo": "0",
      "waiting_4yo": "0",
      "waiting_5yo": "0"
    }
  },
  {
    "name": "ゆいまーる保育園",
    "lat": 35.71361239755594,
    "lng": 139.97879365385708,
    "details": {
      "number": "117",
      "address": "千葉県船橋市北本町1-12-8",
      "phone_number": "047-424-7711",
      "capacity": "140",
      "waiting_0yo": "0",
      "waiting_1yo": "2",
      "waiting_2yo": "0",
      "waiting_3yo": "0",
      "waiting_4yo": "0",
      "waiting_5yo": "0"
    }
  },
  {
    "name": "ナーサリー木の実",
    "lat": 35.727099060509296,
    "lng": 140.05923630543603,
    "details": {
      "number": "118",
      "address": "千葉県船橋市坪井東4-7-60",
      "phone_number": "047-497-8457",
      "capacity": "90",
      "waiting_0yo": "0",
      "waiting_1yo": "2",
      "waiting_2yo": "2",
      "waiting_3yo": "0",
      "waiting_4yo": "0",
      "waiting_5yo": "1"
    }
  },
  {
    "name": "丸山旭保育園",
    "lat": 35.74843084159629,
    "lng": 139.99192212701968,
    "details": {
      "number": "119",
      "address": "千葉県船橋市丸山5-33-25",
      "phone_number": "047-438-3383",
      "capacity": "80",
      "waiting_0yo": "7",
      "waiting_1yo": "5",
      "waiting_2yo": "1",
      "waiting_3yo": "0",
      "waiting_4yo": "0",
      "waiting_5yo": "1"
    }
  },
  {
    "name": "あまねの杜保育園",
    "lat": 35.7229781159785,
    "lng": 139.97029899155186,
    "details": {
      "number": "120",
      "address": "千葉県船橋市行田2-9-10",
      "phone_number": "047-401-5011",
      "capacity": "160",
      "waiting_0yo": "2",
      "waiting_1yo": "6",
      "waiting_2yo": "1",
      "waiting_3yo": "0",
      "waiting_4yo": "1",
      "waiting_5yo": "1"
    }
  },
  {
    "name": "AIAI NURSERY宮本",
    "lat": 35.693981904625375,
    "lng": 139.9899945044472,
    "details": {
      "number": "121",
      "address": "千葉県船橋市宮本3-9-4",
      "phone_number": "047-401-0271",
      "capacity": "74",
      "waiting_0yo": "0",
      "waiting_1yo": "0",
      "waiting_2yo": "0",
      "waiting_3yo": "0",
      "waiting_4yo": "0",
      "waiting_5yo": "0"
    }
  },
  {
    "name": "東船橋ちとせ保育園",
    "lat": 35.701500288498536,
    "lng": 139.99842748618622,
    "details": {
      "number": "122",
      "address": "千葉県船橋市東船橋1-16-25",
      "phone_number": "047-423-5717",
      "capacity": "100",
      "waiting_0yo": "0",
      "waiting_1yo": "2",
      "waiting_2yo": "0",
      "waiting_3yo": "0",
      "waiting_4yo": "0",
      "waiting_5yo": "0"
    }
  },
  {
    "name": "船橋どろんこ保育園",
    "lat": 35.708194174123975,
    "lng": 139.98501134832472,
    "details": {
      "number": "123",
      "address": "千葉県船橋市本町6-8-9",
      "phone_number": "047-429-8140",
      "capacity": "110",
      "waiting_0yo": "1",
      "waiting_1yo": "3",
      "waiting_2yo": "0",
      "waiting_3yo": "0",
      "waiting_4yo": "0",
      "waiting_5yo": "0"
    }
  },
  {
    "name": "グローバルキッズ コトニア西船橋園",
    "lat": 35.7160382654268,
    "lng": 139.94698324570982,
    "details": {
      "number": "124",
      "address": "千葉県船橋市東中山1-19-13",
      "phone_number": "047-336-6661",
      "capacity": "90",
      "waiting_0yo": "0",
      "waiting_1yo": "0",
      "waiting_2yo": "0",
      "waiting_3yo": "0",
      "waiting_4yo": "0",
      "waiting_5yo": "0"
    }
  },
  {
    "name": "船橋ハーモニー保育園",
    "lat": 35.705408705020055,
    "lng": 140.03004365528176,
    "details": {
      "number": "125",
      "address": "千葉県船橋市前原東5-8-8",
      "phone_number": "047-429-8802",
      "capacity": "105",
      "waiting_0yo": "0",
      "waiting_1yo": "1",
      "waiting_2yo": "0",
      "waiting_3yo": "0",
      "waiting_4yo": "0",
      "waiting_5yo": "0"
    }
  },
  {
    "name": "ミアヘルサ保育園ひびき新船橋",
    "lat": 35.709631728464096,
    "lng": 139.97449717892113,
    "details": {
      "number": "126",
      "address": "千葉県船橋市海神3-26-30",
      "phone_number": "047-401-3875",
      "capacity": "100",
      "waiting_0yo": "0",
      "waiting_1yo": "0",
      "waiting_2yo": "0",
      "waiting_3yo": "0",
      "waiting_4yo": "0",
      "waiting_5yo": "0"
    }
  },
  {
    "name": "えがおの森保育園・にしふなばし",
    "lat": 35.71114986466358,
    "lng": 139.94883928722135,
    "details": {
      "number": "127",
      "address": "千葉県船橋市本郷町430",
      "phone_number": "047-332-0581",
      "capacity": "92",
      "waiting_0yo": "0",
      "waiting_1yo": "1",
      "waiting_2yo": "0",
      "waiting_3yo": "0",
      "waiting_4yo": "0",
      "waiting_5yo": "0"
    }
  },
  {
    "name": "薬園台・学びの保育園",
    "lat": 35.71489189155459,
    "lng": 140.03932148539482,
    "details": {
      "number": "128",
      "address": "千葉県船橋市薬円台5-6-7",
      "phone_number": "047-402-4680",
      "capacity": "71",
      "waiting_0yo": "0",
      "waiting_1yo": "0",
      "waiting_2yo": "0",
      "waiting_3yo": "0",
      "waiting_4yo": "0",
      "waiting_5yo": "0"
    }
  },
  {
    "name": "AIAI NURSERY北習志野",
    "lat": 35.72391278017003,
    "lng": 140.03568242563185,
    "details": {
      "number": "129",
      "address": "千葉県船橋市西習志野3-27-7",
      "phone_number": "047-404-7771",
      "capacity": "56",
      "waiting_0yo": "0",
      "waiting_1yo": "0",
      "waiting_2yo": "0",
      "waiting_3yo": "0",
      "waiting_4yo": "0",
      "waiting_5yo": "0"
    }
  },
  {
    "name": "船橋光の子保育園",
    "lat": 35.74873168309007,
    "lng": 139.98731450450677,
    "details": {
      "number": "130",
      "address": "千葉県船橋市丸山1-3-3",
      "phone_number": "047-406-7055",
      "capacity": "50",
      "waiting_0yo": "1",
      "waiting_1yo": "0",
      "waiting_2yo": "1",
      "waiting_3yo": "0",
      "waiting_4yo": "0",
      "waiting_5yo": "0"
    }
  },
  {
    "name": "船橋法典すきっぷ保育園",
    "lat": 35.73459355018902,
    "lng": 139.96064733570842,
    "details": {
      "number": "131",
      "address": "千葉県船橋市藤原1-3-10",
      "phone_number": "047-382-5917",
      "capacity": "65",
      "waiting_0yo": "0",
      "waiting_1yo": "3",
      "waiting_2yo": "0",
      "waiting_3yo": "0",
      "waiting_4yo": "0",
      "waiting_5yo": "0"
    }
  },
  {
    "name": "AIAI NURSERY船橋法典",
    "lat": 35.73174400228132,
    "lng": 139.9655280386981,
    "details": {
      "number": "132",
      "address": "千葉県船橋市上山町1-223-4",
      "phone_number": "047-382-5357",
      "capacity": "60",
      "waiting_0yo": "0",
      "waiting_1yo": "1",
      "waiting_2yo": "0",
      "waiting_3yo": "0",
      "waiting_4yo": "0",
      "waiting_5yo": "0"
    }
  },
  {
    "name": "AIAI NURSERY西船橋",
    "lat": 35.714373585350096,
    "lng": 139.95190389708074,
    "details": {
      "number": "133",
      "address": "千葉県船橋市西船5-26-25",
      "phone_number": "047-307-9202",
      "capacity": "60",
      "waiting_0yo": "0",
      "waiting_1yo": "0",
      "waiting_2yo": "0",
      "waiting_3yo": "0",
      "waiting_4yo": "0",
      "waiting_5yo": "0"
    }
  },
  {
    "name": "にじいろ保育園薬円台",
    "lat": 35.71151822750622,
    "lng": 140.0377407562879,
    "details": {
      "number": "134",
      "address": "千葉県船橋市薬円台1-24-1",
      "phone_number": "047-402-4033",
      "capacity": "77",
      "waiting_0yo": "0",
      "waiting_1yo": "0",
      "waiting_2yo": "1",
      "waiting_3yo": "0",
      "waiting_4yo": "0",
      "waiting_5yo": "0"
    }
  },
  {
    "name": "塚田ここわ保育園",
    "lat": 35.72021270995254,
    "lng": 139.98077921765457,
    "details": {
      "number": "135",
      "address": "千葉県船橋市北本町2-41-20",
      "phone_number": "047-407-0243",
      "capacity": "60",
      "waiting_0yo": "0",
      "waiting_1yo": "1",
      "waiting_2yo": "1",
      "waiting_3yo": "0",
      "waiting_4yo": "0",
      "waiting_5yo": "0"
    }
  },
  {
    "name": "ブルゥミング保育園",
    "lat": 35.701961974445986,
    "lng": 139.98872928723588,
    "details": {
      "number": "136",
      "address": "千葉県船橋市宮本1-8-11",
      "phone_number": "047-409-9996",
      "capacity": "90",
      "waiting_0yo": "0",
      "waiting_1yo": "0",
      "waiting_2yo": "0",
      "waiting_3yo": "0",
      "waiting_4yo": "0",
      "waiting_5yo": "0"
    }
  },
  {
    "name": "そらまめ保育園　新船橋",
    "lat": 35.71361239755594,
    "lng": 139.97879365385708,
    "details": {
      "number": "137",
      "address": "千葉県船橋市北本町1-17-22",
      "phone_number": "047-455-8682",
      "capacity": "90",
      "waiting_0yo": "0",
      "waiting_1yo": "2",
      "waiting_2yo": "0",
      "waiting_3yo": "0",
      "waiting_4yo": "0",
      "waiting_5yo": "0"
    }
  },
  {
    "name": "まなびの森保育園飯山満",
    "lat": 35.711447870720626,
    "lng": 140.02426889759468,
    "details": {
      "number": "138",
      "address": "千葉県船橋市二宮1-71-30",
      "phone_number": "047-466-7788",
      "capacity": "60",
      "waiting_0yo": "0",
      "waiting_1yo": "1",
      "waiting_2yo": "0",
      "waiting_3yo": "0",
      "waiting_4yo": "0",
      "waiting_5yo": "0"
    }
  },
  {
    "name": "グリュック保育園",
    "lat": 35.701500288498536,
    "lng": 139.99842748618622,
    "details": {
      "number": "139",
      "address": "千葉県船橋市東船橋1-26-10",
      "phone_number": "047-424-3741",
      "capacity": "60",
      "waiting_0yo": "0",
      "waiting_1yo": "3",
      "waiting_2yo": "0",
      "waiting_3yo": "0",
      "waiting_4yo": "0",
      "waiting_5yo": "0"
    }
  },
  {
    "name": "ゆめのもり保育園",
    "lat": 35.703214704844164,
    "lng": 140.0209355141845,
    "details": {
      "number": "140",
      "address": "千葉県船橋市前原西7-1-19",
      "phone_number": "047-406-4700",
      "capacity": "60",
      "waiting_0yo": "0",
      "waiting_1yo": "2",
      "waiting_2yo": "1",
      "waiting_3yo": "0",
      "waiting_4yo": "0",
      "waiting_5yo": "0"
    }
  },
  {
    "name": "船橋どろんこ保育園　分園",
    "lat": 35.70555048164533,
    "lng": 139.98540542243404,
    "details": {
      "number": "141",
      "address": "千葉県船橋市本町5-18-25",
      "phone_number": "047-409-2871",
      "capacity": "30",
      "waiting_0yo": "0",
      "waiting_1yo": "0",
      "waiting_2yo": "0",
      "waiting_3yo": "*",
      "waiting_4yo": "*",
      "waiting_5yo": "*"
    }
  },
  {
    "name": "太陽の子　塚田保育園",
    "lat": 35.72753163697573,
    "lng": 139.9715007047795,
    "details": {
      "number": "142",
      "address": "千葉県船橋市行田町352-5",
      "phone_number": "047-406-6006",
      "capacity": "75",
      "waiting_0yo": "2",
      "waiting_1yo": "5",
      "waiting_2yo": "3",
      "waiting_3yo": "0",
      "waiting_4yo": "1",
      "waiting_5yo": "0"
    }
  },
  {
    "name": "まなびの森保育園　東船橋",
    "lat": 35.701500288498536,
    "lng": 139.99842748618622,
    "details": {
      "number": "143",
      "address": "千葉県船橋市東船橋1-18-12",
      "phone_number": "047-411-1155",
      "capacity": "80",
      "waiting_0yo": "1",
      "waiting_1yo": "5",
      "waiting_2yo": "2",
      "waiting_3yo": "0",
      "waiting_4yo": "0",
      "waiting_5yo": "0"
    }
  },
  {
    "name": "りんごのき保育園",
    "lat": 35.701500288498536,
    "lng": 139.99842748618622,
    "details": {
      "number": "144",
      "address": "千葉県船橋市東船橋1-24-15 グレイス東船橋1階",
      "phone_number": "047-411-8054",
      "capacity": "40",
      "waiting_0yo": "0",
      "waiting_1yo": "0",
      "waiting_2yo": "0",
      "waiting_3yo": "0",
      "waiting_4yo": "0",
      "waiting_5yo": "0"
    }
  },
  {
    "name": "新船橋ここわ保育園",
    "lat": 35.7127301680883,
    "lng": 139.96663871758716,
    "details": {
      "number": "145",
      "address": "千葉県船橋市海神5-29-61",
      "phone_number": "047-402-6431",
      "capacity": "60",
      "waiting_0yo": "0",
      "waiting_1yo": "0",
      "waiting_2yo": "0",
      "waiting_3yo": "0",
      "waiting_4yo": "0",
      "waiting_5yo": "0"
    }
  },
  {
    "name": "西船橋すきっぷ保育園",
    "lat": 35.71216691539016,
    "lng": 139.9549457294125,
    "details": {
      "number": "146",
      "address": "千葉県船橋市西船4-12-20",
      "phone_number": "047-401-6251",
      "capacity": "65",
      "waiting_0yo": "0",
      "waiting_1yo": "2",
      "waiting_2yo": "0",
      "waiting_3yo": "0",
      "waiting_4yo": "0",
      "waiting_5yo": "0"
    }
  },
  {
    "name": "ラブキッズ",
    "lat": 35.72314297965766,
    "lng": 139.96594135341883,
    "details": {
      "number": "147",
      "address": "千葉県船橋市行田3-2-21",
      "phone_number": "047-429-1212",
      "capacity": "70",
      "waiting_0yo": "0",
      "waiting_1yo": "0",
      "waiting_2yo": "0",
      "waiting_3yo": "0",
      "waiting_4yo": "0",
      "waiting_5yo": "0"
    }
  },
  {
    "name": "ゆめわかば保育園",
    "lat": 35.69912033422936,
    "lng": 140.02720915055002,
    "details": {
      "number": "148",
      "address": "千葉県船橋市前原東2-18-41",
      "phone_number": "047-406-4421",
      "capacity": "70",
      "waiting_0yo": "0",
      "waiting_1yo": "0",
      "waiting_2yo": "0",
      "waiting_3yo": "0",
      "waiting_4yo": "1",
      "waiting_5yo": "0"
    }
  },
  {
    "name": "たんぽぽ西船橋駅前保育園",
    "lat": 35.70862832107967,
    "lng": 139.95525084730937,
    "details": {
      "number": "149",
      "address": "千葉県船橋市印内町631-1",
      "phone_number": "047-420-3017",
      "capacity": "80",
      "waiting_0yo": "0",
      "waiting_1yo": "0",
      "waiting_2yo": "0",
      "waiting_3yo": "0",
      "waiting_4yo": "0",
      "waiting_5yo": "0"
    }
  },
  {
    "name": "たんぽぽ海神町南保育園",
    "lat": 35.70395807467442,
    "lng": 139.9637303198376,
    "details": {
      "number": "150",
      "address": "千葉県船橋市海神町南1-1428-20",
      "phone_number": "047-495-6200",
      "capacity": "60",
      "waiting_0yo": "2",
      "waiting_1yo": "3",
      "waiting_2yo": "0",
      "waiting_3yo": "0",
      "waiting_4yo": "0",
      "waiting_5yo": "0"
    }
  },
  {
    "name": "船橋くれよん保育園",
    "lat": 35.73406620441055,
    "lng": 140.0565122516379,
    "details": {
      "number": "151",
      "address": "千葉県船橋市坪井東2-13-27",
      "phone_number": "047-460-9926",
      "capacity": "60",
      "waiting_0yo": "*",
      "waiting_1yo": "2",
      "waiting_2yo": "1",
      "waiting_3yo": "1",
      "waiting_4yo": "0",
      "waiting_5yo": "0"
    }
  },
  {
    "name": "Milky Way International Nursery School 新船橋校",
    "lat": 35.71593322820209,
    "lng": 139.9821702740014,
    "details": {
      "number": "152",
      "address": "千葉県船橋市夏見3-20-11",
      "phone_number": "047-455-3225",
      "capacity": "80",
      "waiting_0yo": "2",
      "waiting_1yo": "1",
      "waiting_2yo": "1",
      "waiting_3yo": "0",
      "waiting_4yo": "1",
      "waiting_5yo": "0"
    }
  },
  {
    "name": "西船橋雲母保育園",
    "lat": 35.71114986466358,
    "lng": 139.94883928722135,
    "details": {
      "number": "153",
      "address": "千葉県船橋市本郷町456-1-2F",
      "phone_number": "047-709-4300",
      "capacity": "60",
      "waiting_0yo": "0",
      "waiting_1yo": "0",
      "waiting_2yo": "0",
      "waiting_3yo": "0",
      "waiting_4yo": "0",
      "waiting_5yo": "0"
    }
  },
  {
    "name": "そらまめ保育園　西船橋",
    "lat": 35.70822368243181,
    "lng": 139.9669428749316,
    "details": {
      "number": "154",
      "address": "千葉県船橋市海神6-16-11",
      "phone_number": "047-497-8285",
      "capacity": "75",
      "waiting_0yo": "0",
      "waiting_1yo": "2",
      "waiting_2yo": "0",
      "waiting_3yo": "0",
      "waiting_4yo": "0",
      "waiting_5yo": "0"
    }
  },
  {
    "name": "まなびの森保育園　船橋競馬場駅前",
    "lat": 35.69107041182864,
    "lng": 139.99666605879935,
    "details": {
      "number": "155",
      "address": "千葉県船橋市宮本9-1-11",
      "phone_number": "047-402-4402",
      "capacity": "140",
      "waiting_0yo": "1",
      "waiting_1yo": "0",
      "waiting_2yo": "0",
      "waiting_3yo": "0",
      "waiting_4yo": "0",
      "waiting_5yo": "0"
    }
  },
  {
    "name": "ポポラー千葉新船橋園",
    "lat": 35.71361239755594,
    "lng": 139.97879365385708,
    "details": {
      "number": "156",
      "address": "千葉県船橋市北本町1-12-17-2F",
      "phone_number": "047-460-3040",
      "capacity": "50",
      "waiting_0yo": "0",
      "waiting_1yo": "0",
      "waiting_2yo": "0",
      "waiting_3yo": "0",
      "waiting_4yo": "0",
      "waiting_5yo": "0"
    }
  },
  {
    "name": "船橋うめのき保育園",
    "lat": 35.73174400228132,
    "lng": 139.9655280386981,
    "details": {
      "number": "157",
      "address": "千葉県船橋市上山町1-225-3",
      "phone_number": "047-710-5431",
      "capacity": "60",
      "waiting_0yo": "0",
      "waiting_1yo": "0",
      "waiting_2yo": "0",
      "waiting_3yo": "0",
      "waiting_4yo": "0",
      "waiting_5yo": "0"
    }
  },
  {
    "name": "ミアヘルサ保育園ひびき新船橋北",
    "lat": 35.71637595682917,
    "lng": 139.97397194927908,
    "details": {
      "number": "158",
      "address": "千葉県船橋市山手1-1-11",
      "phone_number": "047-498-9370",
      "capacity": "75",
      "waiting_0yo": "0",
      "waiting_1yo": "0",
      "waiting_2yo": "0",
      "waiting_3yo": "0",
      "waiting_4yo": "0",
      "waiting_5yo": "0"
    }
  },
  {
    "name": "船橋こどもの木保育園",
    "lat": 35.72781527155324,
    "lng": 140.03308248644154,
    "details": {
      "number": "159",
      "address": "千葉県船橋市西習志野2-6-1",
      "phone_number": "047-468-8207",
      "capacity": "60",
      "waiting_0yo": "1",
      "waiting_1yo": "0",
      "waiting_2yo": "1",
      "waiting_3yo": "1",
      "waiting_4yo": "0",
      "waiting_5yo": "0"
    }
  },
  {
    "name": "船橋馬込沢雲母保育園",
    "lat": 35.73608173617207,
    "lng": 139.9737081703131,
    "details": {
      "number": "160",
      "address": "千葉県船橋市上山町2-487-1",
      "phone_number": "047-430-2424",
      "capacity": "60",
      "waiting_0yo": "0",
      "waiting_1yo": "0",
      "waiting_2yo": "0",
      "waiting_3yo": "0",
      "waiting_4yo": "0",
      "waiting_5yo": "0"
    }
  },
  {
    "name": "京進のほいくえんＨＯＰＰＡ前原西",
    "lat": 35.70161964816004,
    "lng": 140.01222131547578,
    "details": {
      "number": "161",
      "address": "千葉県船橋市前原西4-12-15",
      "phone_number": "047-489-5260",
      "capacity": "70",
      "waiting_0yo": "0",
      "waiting_1yo": "0",
      "waiting_2yo": "0",
      "waiting_3yo": "0",
      "waiting_4yo": "0",
      "waiting_5yo": "0"
    }
  },
  {
    "name": "ここみ保育園",
    "lat": 35.703424446676145,
    "lng": 139.97527936494427,
    "details": {
      "number": "162",
      "address": "千葉県船橋市海神1-8-9",
      "phone_number": "047-432-2904",
      "capacity": "40",
      "waiting_0yo": "0",
      "waiting_1yo": "0",
      "waiting_2yo": "0",
      "waiting_3yo": "0",
      "waiting_4yo": "0",
      "waiting_5yo": "0"
    }
  },
  {
    "name": "共同保育所子どもの家",
    "lat": 35.70555048164533,
    "lng": 139.98540542243404,
    "details": {
      "number": "163",
      "address": "千葉県船橋市本町5-15-9",
      "phone_number": "047-423-1770",
      "capacity": "50",
      "waiting_0yo": "0",
      "waiting_1yo": "0",
      "waiting_2yo": "0",
      "waiting_3yo": "0",
      "waiting_4yo": "0",
      "waiting_5yo": "0"
    }
  },
  {
    "name": "ベル・ナーサリー塚田",
    "lat": 35.724167125462955,
    "lng": 139.9755894957639,
    "details": {
      "number": "164",
      "address": "千葉県船橋市行田1-50-31",
      "phone_number": "047-401-3930",
      "capacity": "150",
      "waiting_0yo": "0",
      "waiting_1yo": "0",
      "waiting_2yo": "2",
      "waiting_3yo": "0",
      "waiting_4yo": "0",
      "waiting_5yo": "0"
    }
  },
  {
    "name": "東船橋雲母保育園",
    "lat": 35.70437313771068,
    "lng": 140.0047788325702,
    "details": {
      "number": "165",
      "address": "千葉県船橋市東船橋3-36-13",
      "phone_number": "047-460-5130",
      "capacity": "60",
      "waiting_0yo": "1",
      "waiting_1yo": "1",
      "waiting_2yo": "0",
      "waiting_3yo": "0",
      "waiting_4yo": "0",
      "waiting_5yo": "0"
    }
  },
  {
    "name": "東船橋ひなた",
    "lat": 35.706009160643774,
    "lng": 140.01241712046036,
    "details": {
      "number": "166",
      "address": "千葉県船橋市中野木2-31-13",
      "phone_number": "047-409-9830",
      "capacity": "60",
      "waiting_0yo": "0",
      "waiting_1yo": "2",
      "waiting_2yo": "0",
      "waiting_3yo": "0",
      "waiting_4yo": "0",
      "waiting_5yo": "0"
    }
  },
  {
    "name": "トット保育園飯山満",
    "lat": 35.714994189861315,
    "lng": 140.01382363614107,
    "details": {
      "number": "167",
      "address": "千葉県船橋市飯山満1-950-3",
      "phone_number": "0120-01-6069",
      "capacity": "67",
      "waiting_0yo": "0",
      "waiting_1yo": "2",
      "waiting_2yo": "2",
      "waiting_3yo": "0",
      "waiting_4yo": "0",
      "waiting_5yo": "0"
    }
  },
  {
    "name": "栄光幼稚園",
    "lat": 35.71962777801929,
    "lng": 140.01783110887,
    "details": {
      "number": "168",
      "address": "千葉県船橋市芝山3-10-9",
      "phone_number": "047-464-8084",
      "capacity": "165",
      "waiting_0yo": "*",
      "waiting_1yo": "*",
      "waiting_2yo": "*",
      "waiting_3yo": "0",
      "waiting_4yo": "0",
      "waiting_5yo": "0"
    }
  }
]