[
  {
    "name": "宮本第一保育園",
    "lat": 35.697922,
    "lng": 139.995642,
    "details": {
      "address": "船橋市宮本6-26-27",
      "phone_number": "047-422-5639"
    }
  },
  {
    "name": "宮本第二保育園",
    "lat": 35.691534,
    "lng": 140.000103,
    "details": {
      "address": "船橋市宮本8-9-10",
      "phone_number": "047-423-1304"
    }
  },
  {
    "name": "若松保育園",
    "lat": 35.679471,
    "lng": 139.994368,
    "details": {
      "address": "船橋市若松2-6-3",
      "phone_number": "047-433-4041"
    }
  },
  {
    "name": "湊町保育園",
    "lat": 35.692781,
    "lng": 139.985118,
    "details": {
      "address": "船橋市湊町1-16-23",
      "phone_number": "047-431-4961"
    }
  },
  {
    "name": "千鳥保育園",
    "lat": 35.698047,
    "lng": 139.977074,
    "details": {
      "address": "船橋市南本町13-1",
      "phone_number": "047-431-5061"
    }
  },
  {
    "name": "中央保育園",
    "lat": 35.6999276,
    "lng": 139.9890058,
    "details": {
      "address": "船橋市本町4-17-21",
      "phone_number": "047-422-4762"
    }
  },
  {
    "name": "本町保育園",
    "lat": 35.7052204,
    "lng": 139.9874551,
    "details": {
      "address": "船橋市本町6-7-18",
      "phone_number": "047-424-7011"
    }
  },
  {
    "name": "海神第一保育園",
    "lat": 35.7041691,
    "lng": 139.9817859,
    "details": {
      "address": "船橋市海神2-13-25",
      "phone_number": "047-422-2462"
    }
  },
  {
    "name": "海神第二保育園",
    "lat": 35.699977,
    "lng": 139.981332,
    "details": {
      "address": "船橋市本町1-23-7",
      "phone_number": "047-435-0783"
    }
  },
  {
    "name": "西船保育園",
    "lat": 35.713835,
    "lng": 139.958119,
    "details": {
      "address": "船橋市西船6-1-24",
      "phone_number": "047-333-8187"
    }
  },
  {
    "name": "本中山保育園",
    "lat": 35.707214,
    "lng": 139.942606,
    "details": {
      "address": "船橋市本中山5-6-1",
      "phone_number": "047-333-6451"
    }
  },
  {
    "name": "若葉保育園",
    "lat": 35.744006,
    "lng": 139.98803,
    "details": {
      "address": "船橋市藤原7-41-1",
      "phone_number": "047-439-0472"
    }
  },
  {
    "name": "行田保育園",
    "lat": 35.7170724,
    "lng": 139.9694185,
    "details": {
      "address": "船橋市行田3-1-2",
      "phone_number": "047-439-5000"
    }
  },
  {
    "name": "夏見第一保育園",
    "lat": 35.712884,
    "lng": 139.992025,
    "details": {
      "address": "船橋市夏見4-10-26",
      "phone_number": "047-422-5198"
    }
  },
  {
    "name": "夏見第二保育園",
    "lat": 35.722811,
    "lng": 139.992044,
    "details": {
      "address": "船橋市夏見台4-1-1",
      "phone_number": "047-439-6231"
    }
  },
  {
    "name": "高根保育園",
    "lat": 35.731883,
    "lng": 140.026898,
    "details": {
      "address": "船橋市新高根4-19-2",
      "phone_number": "047-463-1418"
    }
  },
  {
    "name": "金杉台保育園",
    "lat": 35.735243,
    "lng": 140.011394,
    "details": {
      "address": "船橋市金杉台1-1-6",
      "phone_number": "047-447-0022"
    }
  },
  {
    "name": "二和保育園",
    "lat": 35.751556,
    "lng": 140.025361,
    "details": {
      "address": "船橋市二和東5-50-1",
      "phone_number": "047-447-0801"
    }
  },
  {
    "name": "三山保育園",
    "lat": 35.701377,
    "lng": 140.0580441,
    "details": {
      "address": "船橋市三山6-26-26",
      "phone_number": "047-476-2701"
    }
  },
  {
    "name": "二宮保育園",
    "lat": 35.6999078,
    "lng": 140.0197286,
    "details": {
      "address": "船橋市前原西6-1-12",
      "phone_number": "047-472-1097"
    }
  },
  {
    "name": "習志野台第一保育園",
    "lat": 35.72347920000001,
    "lng": 140.0463083,
    "details": {
      "address": "船橋市習志野台2-50-3",
      "phone_number": "047-465-4124"
    }
  },
  {
    "name": "習志野台第二保育園",
    "lat": 35.726675,
    "lng": 140.049608,
    "details": {
      "address": "船橋市習志野台6-7-1",
      "phone_number": "047-464-3818"
    }
  },
  {
    "name": "高根台保育園",
    "lat": 35.733852,
    "lng": 140.031431,
    "details": {
      "address": "船橋市高根台2-2-2",
      "phone_number": "047-466-2611"
    }
  },
  {
    "name": "緑台保育園",
    "lat": 35.729905,
    "lng": 140.013397,
    "details": {
      "address": "船橋市緑台2-4-11",
      "phone_number": "047-447-9122"
    }
  },
  {
    "name": "芝山第一保育園",
    "lat": 35.717842,
    "lng": 140.019419,
    "details": {
      "address": "船橋市芝山3-10-4",
      "phone_number": "047-462-7575"
    }
  },
  {
    "name": "小室保育園",
    "lat": 35.788123,
    "lng": 140.076131,
    "details": {
      "address": "船橋市小室町3305",
      "phone_number": "047-457-1717"
    }
  },
  {
    "name": "浜町保育園",
    "lat": 35.691245,
    "lng": 139.989412,
    "details": {
      "address": "船橋市浜町1-1-1",
      "phone_number": "047-431-3262"
    }
  }
]