[
  {
    "name": "中央公民館",
    "lat": 35.6976875,
    "lng": 139.9849711,
    "details": {
      "address": "船橋市本町2－2－5",
      "phone_number": "047-434-5551"
    }
  },
  {
    "name": "浜町公民館",
    "lat": 35.6887341,
    "lng": 139.9898134,
    "details": {
      "address": "船橋市浜町2－1－15",
      "phone_number": "047-434-1405"
    }
  },
  {
    "name": "宮本公民館",
    "lat": 35.6932676,
    "lng": 139.9943875,
    "details": {
      "address": "船橋市宮本6－18－1",
      "phone_number": "047-424-9840"
    }
  },
  {
    "name": "海神公民館",
    "lat": 35.7049844,
    "lng": 139.9728517,
    "details": {
      "address": "船橋市海神6－3－36",
      "phone_number": "047-420-1001"
    }
  },
  {
    "name": "東部公民館",
    "lat": 35.692809,
    "lng": 140.0227435,
    "details": {
      "address": "船橋市前原西2－21－21",
      "phone_number": "047-477-7171"
    }
  },
  {
    "name": "三田公民館",
    "lat": 35.6982822,
    "lng": 140.044931,
    "details": {
      "address": "船橋市田喜野井2－24－2",
      "phone_number": "047-477-2961"
    }
  },
  {
    "name": "習志野台公民館",
    "lat": 35.7186029,
    "lng": 140.0504757,
    "details": {
      "address": "船橋市習志野台5－1－1",
      "phone_number": "047-463-2231"
    }
  },
  {
    "name": "飯山満公民館",
    "lat": 35.7117521,
    "lng": 140.0170796,
    "details": {
      "address": "船橋市飯山満町1－950－3",
      "phone_number": "047-424-4311"
    }
  },
  {
    "name": "薬円台公民館",
    "lat": 35.7109862,
    "lng": 140.0418692,
    "details": {
      "address": "船橋市薬円台5－18－1",
      "phone_number": "047-469-4535"
    }
  },
  {
    "name": "西部公民館",
    "lat": 35.715553,
    "lng": 139.9472182,
    "details": {
      "address": "船橋市本中山1－6－6",
      "phone_number": "047-333-5415"
    }
  },
  {
    "name": "法典公民館",
    "lat": 35.7402115,
    "lng": 139.9875916,
    "details": {
      "address": "船橋市藤原7－33－7",
      "phone_number": "047-438-3203"
    }
  },
  {
    "name": "丸山公民館",
    "lat": 35.7463671,
    "lng": 139.996449,
    "details": {
      "address": "船橋市丸山5－19－6",
      "phone_number": "047-439-0118"
    }
  },
  {
    "name": "塚田公民館",
    "lat": 35.7234892,
    "lng": 139.9798471,
    "details": {
      "address": "船橋市前貝塚町601－1",
      "phone_number": "047-438-2610"
    }
  },
  {
    "name": "葛飾公民館",
    "lat": 35.7131026,
    "lng": 139.9614964,
    "details": {
      "address": "船橋市西船3－6－25－201",
      "phone_number": "047-437-5072"
    }
  },
  {
    "name": "北部公民館",
    "lat": 35.7615239,
    "lng": 140.0656051,
    "details": {
      "address": "船橋市豊富町4",
      "phone_number": "047-457-0433"
    }
  },
  {
    "name": "二和公民館",
    "lat": 35.7537021,
    "lng": 140.0224187,
    "details": {
      "address": "船橋市二和東5－26－1",
      "phone_number": "047-447-3200"
    }
  },
  {
    "name": "海老が作公民館",
    "lat": 35.7394911,
    "lng": 140.0354506,
    "details": {
      "address": "船橋市大穴南3－19－1",
      "phone_number": "047-464-8232"
    }
  },
  {
    "name": "小室公民館",
    "lat": 35.7880718,
    "lng": 140.0742943,
    "details": {
      "address": "船橋市小室町3308",
      "phone_number": "047-457-5144"
    }
  },
  {
    "name": "八木が谷公民館",
    "lat": 35.7604845,
    "lng": 140.0343964,
    "details": {
      "address": "船橋市八木が谷2－14－6",
      "phone_number": "047-448-5030"
    }
  },
  {
    "name": "三咲公民館",
    "lat": 35.7503501,
    "lng": 140.0367343,
    "details": {
      "address": "船橋市三咲3－5－10",
      "phone_number": "047-448-3291"
    }
  },
  {
    "name": "松が丘公民館",
    "lat": 35.73307450000001,
    "lng": 140.0481837,
    "details": {
      "address": "船橋市松が丘4－32－2",
      "phone_number": "047-468-3750"
    }
  },
  {
    "name": "坪井公民館",
    "lat": 35.7328007,
    "lng": 140.0598189,
    "details": {
      "address": "船橋市坪井町1371",
      "phone_number": "047-402-0271"
    }
  },
  {
    "name": "高根台公民館",
    "lat": 35.7304537,
    "lng": 140.0314703,
    "details": {
      "address": "船橋市高根台1－2－5",
      "phone_number": "047-461-7061"
    }
  },
  {
    "name": "夏見公民館",
    "lat": 35.711028,
    "lng": 139.9956703,
    "details": {
      "address": "船橋市夏見2－29－1",
      "phone_number": "047-423-5119"
    }
  },
  {
    "name": "高根公民館",
    "lat": 35.7273013,
    "lng": 140.0095722,
    "details": {
      "address": "船橋市高根町2885－3",
      "phone_number": "047-438-4112"
    }
  },
  {
    "name": "新高根公民館",
    "lat": 35.7239439,
    "lng": 140.021716,
    "details": {
      "address": "船橋市新高根1－12－9",
      "phone_number": "047-469-4944"
    }
  }
]