[
  {
    "name": "船橋旭こども園",
    "lat": 35.730499,
    "lng": 139.992697,
    "details": {
      "address": "船橋市夏見台5-7-13",
      "phone_number": "047-439-0010"
    }
  },
  {
    "name": "田喜野井旭こども園",
    "lat": 35.703291,
    "lng": 140.042526,
    "details": {
      "address": "船橋市田喜野井4-30-12",
      "phone_number": "047-456-3180"
    }
  },
  {
    "name": "認定こども園　不二幼稚園",
    "lat": 35.7100571,
    "lng": 140.0214698,
    "details": {
      "address": "船橋市飯山満町2-666",
      "phone_number": "047-466-2925"
    }
  },
  {
    "name": "認定こども園おひさま",
    "lat": 35.7029178,
    "lng": 140.0229968,
    "details": {
      "address": "船橋市前原西6-1-64",
      "phone_number": "047-476-7802"
    }
  },
  {
    "name": "幼保連携型認定こども園　大浜幼稚園",
    "lat": 35.713314,
    "lng": 140.0460968,
    "details": {
      "address": "船橋市薬円台4-6-3",
      "phone_number": "047-466-5720"
    }
  },
  {
    "name": "そらまめこども園　船橋駅前",
    "lat": 35.700359,
    "lng": 139.983851,
    "details": {
      "address": "船橋市本町1-30-1",
      "phone_number": "047-405-9951"
    }
  },
  {
    "name": "高根台文化こども園",
    "lat": 35.7316452,
    "lng": 140.0417085,
    "details": {
      "address": "船橋市高根台3-3-2",
      "phone_number": "047-466-2511"
    }
  },
  {
    "name": "幼保連携型認定こども園　二和ひつじ幼稚園",
    "lat": 35.7551493,
    "lng": 140.0249709,
    "details": {
      "address": "船橋市二和東6-23-21",
      "phone_number": "047-447-2041"
    }
  }
]