[
  {
    "name": "めぐみ保育園",
    "lat": 35.7123211,
    "lng": 140.047,
    "details": {
      "address": "船橋市薬円台4-6-1",
      "phone_number": "047-466-0566"
    }
  },
  {
    "name": "中山あけぼの保育園",
    "lat": 35.7132486,
    "lng": 139.9422791,
    "details": {
      "address": "船橋市本中山3-19-3",
      "phone_number": "047-334-9950"
    }
  },
  {
    "name": "ひばり保育園",
    "lat": 35.7353628,
    "lng": 140.0400935,
    "details": {
      "address": "船橋市松が丘1-33-4",
      "phone_number": "047-466-5915"
    }
  },
  {
    "name": "杉の子保育園",
    "lat": 35.7295772,
    "lng": 140.0228317,
    "details": {
      "address": "船橋市新高根3-8-1",
      "phone_number": "047-465-2336"
    }
  },
  {
    "name": "しらゆり保育園",
    "lat": 35.7206835,
    "lng": 139.984086,
    "details": {
      "address": "船橋市北本町2-47-7",
      "phone_number": "047-422-5051"
    }
  },
  {
    "name": "あすなろ保育園",
    "lat": 35.7422999,
    "lng": 140.0153968,
    "details": {
      "address": "船橋市二和西2-6-1",
      "phone_number": "047-447-0023"
    }
  },
  {
    "name": "たかね台ベビーホーム",
    "lat": 35.731805,
    "lng": 140.0303964,
    "details": {
      "address": "船橋市高根台1-9-23-201",
      "phone_number": "047-465-1100"
    }
  },
  {
    "name": "まこと保育園",
    "lat": 35.76504750000001,
    "lng": 140.0555512,
    "details": {
      "address": "船橋市神保町275-34",
      "phone_number": "047-457-1685"
    }
  },
  {
    "name": "まこと保育園分園",
    "lat": 35.7248649,
    "lng": 140.0499336,
    "details": {
      "address": "船橋市習志野台2-73-9",
      "phone_number": "047-465-0230"
    }
  },
  {
    "name": "三咲小鳩保育園",
    "lat": 35.7537096,
    "lng": 140.0363527,
    "details": {
      "address": "船橋市三咲3-6-2",
      "phone_number": "047-447-7612"
    }
  },
  {
    "name": "てまり保育園",
    "lat": 35.7387913,
    "lng": 139.9794495,
    "details": {
      "address": "船橋市藤原5-4-39",
      "phone_number": "047-438-0073"
    }
  },
  {
    "name": "みどり保育園",
    "lat": 35.7031707,
    "lng": 139.9993533,
    "details": {
      "address": "船橋市市場4-12-3",
      "phone_number": "047-424-4152"
    }
  },
  {
    "name": "三山つくし保育園",
    "lat": 35.6934253,
    "lng": 140.0625981,
    "details": {
      "address": "船橋市三山9-31-7",
      "phone_number": "047-473-4435"
    }
  },
  {
    "name": "アンデルセン保育園",
    "lat": 35.7275016,
    "lng": 140.0521695,
    "details": {
      "address": "船橋市習志野台7-8-21",
      "phone_number": "047-462-8111"
    }
  },
  {
    "name": "やまびこ保育園",
    "lat": 35.7606839,
    "lng": 140.0222744,
    "details": {
      "address": "船橋市咲が丘2-11-5",
      "phone_number": "047-449-0225"
    }
  },
  {
    "name": "弥生保育園",
    "lat": 35.7109802,
    "lng": 139.9453477,
    "details": {
      "address": "船橋市本中山3-4-18",
      "phone_number": "047-332-7280"
    }
  },
  {
    "name": "かもめ保育園",
    "lat": 35.7272164,
    "lng": 140.0257332,
    "details": {
      "address": "船橋市新高根6-43-3",
      "phone_number": "047-466-5553"
    }
  },
  {
    "name": "かもめ保育園芝山分園",
    "lat": 35.7161036,
    "lng": 140.0206307,
    "details": {
      "address": "船橋市芝山3-10-8",
      "phone_number": "047-456-4353"
    }
  },
  {
    "name": "前原保育園",
    "lat": 35.703138,
    "lng": 140.0269068,
    "details": {
      "address": "船橋市前原西8-23-5",
      "phone_number": "047-465-2429"
    }
  },
  {
    "name": "ベル・ナーサリー",
    "lat": 35.7211473,
    "lng": 139.9812273,
    "details": {
      "address": "船橋市行田1-49-1",
      "phone_number": "047-430-0086"
    }
  },
  {
    "name": "アンデルセン第二保育園",
    "lat": 35.7188662,
    "lng": 140.0543679,
    "details": {
      "address": "船橋市習志野台5-43-3",
      "phone_number": "047-468-4686"
    }
  },
  {
    "name": "西船みどり保育園",
    "lat": 35.7058632,
    "lng": 139.9634397,
    "details": {
      "address": "船橋市西船1-21-50",
      "phone_number": "047-435-4152"
    }
  },
  {
    "name": "アリスなかよし保育園",
    "lat": 35.7138845,
    "lng": 139.9703142,
    "details": {
      "address": "船橋市西船2-29-28",
      "phone_number": "047-436-1212"
    }
  },
  {
    "name": "ロータス保育園",
    "lat": 35.74046200000001,
    "lng": 139.9819027,
    "details": {
      "address": "船橋市藤原5-23-2",
      "phone_number": "047-439-6663"
    }
  },
  {
    "name": "海神南保育園",
    "lat": 35.7001878,
    "lng": 139.9676338,
    "details": {
      "address": "船橋市海神町南1-1627-2",
      "phone_number": "047-411-6543"
    }
  },
  {
    "name": "前原ひまわり保育園",
    "lat": 35.69672610000001,
    "lng": 140.0164377,
    "details": {
      "address": "船橋市前原西4-18-19",
      "phone_number": "047-474-7788"
    }
  },
  {
    "name": "夏見台保育園",
    "lat": 35.7132443,
    "lng": 139.9880541,
    "details": {
      "address": "船橋市夏見台2-16-1",
      "phone_number": "047-429-7231"
    }
  },
  {
    "name": "プレスクール・ベル",
    "lat": 35.7093011,
    "lng": 139.97493,
    "details": {
      "address": "船橋市海神4-23-16",
      "phone_number": "047-410-0311"
    }
  },
  {
    "name": "みそら保育園",
    "lat": 35.7144269,
    "lng": 139.9543249,
    "details": {
      "address": "船橋市東中山2-1-20",
      "phone_number": "047-302-2505"
    }
  },
  {
    "name": "さくら保育園",
    "lat": 35.70966629999999,
    "lng": 139.9502143,
    "details": {
      "address": "船橋市二子町474",
      "phone_number": "047-302-8301"
    }
  },
  {
    "name": "印内保育園",
    "lat": 35.7148556,
    "lng": 139.9649146,
    "details": {
      "address": "船橋市印内2-2-31",
      "phone_number": "047-433-8368"
    }
  },
  {
    "name": "船橋あおぞら保育園",
    "lat": 35.7530616,
    "lng": 140.0324236,
    "details": {
      "address": "船橋市三咲3-12-55",
      "phone_number": "047-407-9870"
    }
  },
  {
    "name": "船橋あおぞら保育園分園",
    "lat": 35.75547510000001,
    "lng": 140.0229605,
    "details": {
      "address": "船橋市二和東6-16-10　エバラビル2階",
      "phone_number": "047-440-8977"
    }
  },
  {
    "name": "ククルなかよし保育園",
    "lat": 35.7090598,
    "lng": 139.9879141,
    "details": {
      "address": "船橋市夏見2-11-43",
      "phone_number": "047-424-0101"
    }
  },
  {
    "name": "なないろ保育園",
    "lat": 35.7223285,
    "lng": 139.9779741,
    "details": {
      "address": "船橋市行田1-39-5",
      "phone_number": "047-407-1201"
    }
  },
  {
    "name": "ローゼンかみやま保育園",
    "lat": 35.732562,
    "lng": 139.9744827,
    "details": {
      "address": "船橋市上山町2-288-1",
      "phone_number": "047-406-6010"
    }
  },
  {
    "name": "こでまり保育園",
    "lat": 35.7316179,
    "lng": 139.9674996,
    "details": {
      "address": "船橋市藤原2-2-22",
      "phone_number": "047-703-7700"
    }
  },
  {
    "name": "はさま保育園",
    "lat": 35.7117295,
    "lng": 140.0337286,
    "details": {
      "address": "船橋市飯山満町3-1512-1",
      "phone_number": "047-467-1999"
    }
  },
  {
    "name": "美しが丘保育園",
    "lat": 35.7279902,
    "lng": 140.0624543,
    "details": {
      "address": "船橋市坪井東5-18-30",
      "phone_number": "047-457-8806"
    }
  },
  {
    "name": "船橋ピコレール保育園",
    "lat": 35.694728,
    "lng": 139.9910652,
    "details": {
      "address": "船橋市宮本2-6-26",
      "phone_number": "047-425-5057"
    }
  },
  {
    "name": "なの花保育園",
    "lat": 35.7089934,
    "lng": 140.0157512,
    "details": {
      "address": "船橋市飯山満町1-967-1",
      "phone_number": "047-405-9512"
    }
  },
  {
    "name": "ベル・ナーサリー・アスール",
    "lat": 35.7094476,
    "lng": 139.9778173,
    "details": {
      "address": "船橋市海神3-30-1",
      "phone_number": "047-432-1717"
    }
  },
  {
    "name": "たちばな保育園",
    "lat": 35.69395859999999,
    "lng": 140.0242311,
    "details": {
      "address": "船橋市前原西2-24-10",
      "phone_number": "047-470-3745"
    }
  },
  {
    "name": "南船橋保育園",
    "lat": 35.6791629,
    "lng": 139.9971536,
    "details": {
      "address": "船橋市若松2-3-15",
      "phone_number": "047-401-5115"
    }
  },
  {
    "name": "高根台グリーンキディ保育園",
    "lat": 35.7325494,
    "lng": 140.0333569,
    "details": {
      "address": "船橋市高根台2-10-5",
      "phone_number": "047-465-5900"
    }
  },
  {
    "name": "アポロンの丘",
    "lat": 35.7276043,
    "lng": 140.0472692,
    "details": {
      "address": "船橋市習志野台2-59-22",
      "phone_number": "047-404-5427"
    }
  },
  {
    "name": "リサ保育園",
    "lat": 35.703436,
    "lng": 139.9604635,
    "details": {
      "address": "船橋市海神町南1-728",
      "phone_number": "047-404-5621"
    }
  },
  {
    "name": "シーガル保育園",
    "lat": 35.713454,
    "lng": 140.021494,
    "details": {
      "address": "船橋市飯山満町2-1007-1",
      "phone_number": "047-404-7611"
    }
  },
  {
    "name": "敬心ゆめ保育園",
    "lat": 35.7007292,
    "lng": 140.0090411,
    "details": {
      "address": "船橋市東船橋3-15-8",
      "phone_number": "047-411-5725"
    }
  },
  {
    "name": "ゆいまーる保育園",
    "lat": 35.7129199,
    "lng": 139.9816164,
    "details": {
      "address": "船橋市北本町1-12-8",
      "phone_number": "047-424-7711"
    }
  },
  {
    "name": "ナーサリー木の実",
    "lat": 35.7244571,
    "lng": 140.0625864,
    "details": {
      "address": "船橋市坪井東4-7-60",
      "phone_number": "047-497-8457"
    }
  },
  {
    "name": "丸山旭保育園",
    "lat": 35.7431081,
    "lng": 139.9935858,
    "details": {
      "address": "船橋市丸山5-33-25",
      "phone_number": "047-438-3383"
    }
  },
  {
    "name": "あまねの杜保育園",
    "lat": 35.7227772,
    "lng": 139.9721272,
    "details": {
      "address": "船橋市行田2-9-10",
      "phone_number": "047-401-5011"
    }
  },
  {
    "name": "あい・あい保育園　宮本園",
    "lat": 35.690573,
    "lng": 139.9947837,
    "details": {
      "address": "船橋市宮本3-9-4",
      "phone_number": "047-401-0271"
    }
  },
  {
    "name": "東船橋ちとせ保育園",
    "lat": 35.6970789,
    "lng": 140.0037605,
    "details": {
      "address": "船橋市東船橋1-16-25",
      "phone_number": "047-423-5717"
    }
  },
  {
    "name": "船橋どろんこ保育園",
    "lat": 35.7055136,
    "lng": 139.9861342,
    "details": {
      "address": "船橋市本町6-8-9",
      "phone_number": "047-429-8140"
    }
  },
  {
    "name": "グローバルキッズ コトニア西船橋園",
    "lat": 35.7121752,
    "lng": 139.9485808,
    "details": {
      "address": "船橋市東中山1-19-13",
      "phone_number": "047-336-6661"
    }
  },
  {
    "name": "船橋ハーモニー保育園",
    "lat": 35.7036449,
    "lng": 140.0334566,
    "details": {
      "address": "船橋市前原東5-8-8",
      "phone_number": "047-429-8802"
    }
  },
  {
    "name": "ミアヘルサ保育園ひびき新船橋",
    "lat": 35.709624,
    "lng": 139.979326,
    "details": {
      "address": "船橋市海神3-26-30",
      "phone_number": "047-401-3875"
    }
  },
  {
    "name": "えがおの森保育園・にしふなばし",
    "lat": 35.70780209999999,
    "lng": 139.9547175,
    "details": {
      "address": "船橋市本郷町430",
      "phone_number": "047-332-0581"
    }
  },
  {
    "name": "薬園台・学びの保育園",
    "lat": 35.7102923,
    "lng": 140.039081,
    "details": {
      "address": "船橋市薬円台5-6-7",
      "phone_number": "047-402-4680"
    }
  },
  {
    "name": "あい・あい保育園　北習志野園",
    "lat": 35.7213755,
    "lng": 140.0416589,
    "details": {
      "address": "船橋市西習志野3-27-7",
      "phone_number": "047-404-7771"
    }
  },
  {
    "name": "船橋光の子保育園",
    "lat": 35.7436048,
    "lng": 139.9912462,
    "details": {
      "address": "船橋市丸山1-3-3",
      "phone_number": "047-406-7055"
    }
  },
  {
    "name": "船橋法典すきっぷ保育園",
    "lat": 35.7293702,
    "lng": 139.9635814,
    "details": {
      "address": "船橋市藤原1-3-10",
      "phone_number": "047-382-5917"
    }
  },
  {
    "name": "あい・あい保育園　船橋法典園",
    "lat": 35.7311739,
    "lng": 139.9703229,
    "details": {
      "address": "船橋市上山町1-223-4",
      "phone_number": "047-382-5357"
    }
  },
  {
    "name": "あい・あい保育園　西船橋園",
    "lat": 35.7098729,
    "lng": 139.9569955,
    "details": {
      "address": "船橋市西船5-26-25",
      "phone_number": "047-307-9202"
    }
  },
  {
    "name": "にじいろ保育園薬円台",
    "lat": 35.7078143,
    "lng": 140.0431498,
    "details": {
      "address": "船橋市薬円台1-24-1",
      "phone_number": "047-402-4033"
    }
  },
  {
    "name": "塚田ここわ保育園",
    "lat": 35.7191699,
    "lng": 139.9811402,
    "details": {
      "address": "船橋市北本町2-41-20",
      "phone_number": "047-407-0243"
    }
  },
  {
    "name": "ブルゥミング保育園",
    "lat": 35.6995599,
    "lng": 139.9917677,
    "details": {
      "address": "船橋市宮本1-8-11",
      "phone_number": "047-409-9996"
    }
  },
  {
    "name": "そらまめ保育園　新船橋",
    "lat": 35.7098716,
    "lng": 139.9827834,
    "details": {
      "address": "船橋市北本町1-17-22",
      "phone_number": "047-455-8682"
    }
  },
  {
    "name": "まなびの森保育園飯山満",
    "lat": 35.7109217,
    "lng": 140.0275887,
    "details": {
      "address": "船橋市二宮1-71-30",
      "phone_number": "047-466-7788"
    }
  },
  {
    "name": "グリュック保育園",
    "lat": 35.7042541,
    "lng": 140.0082276,
    "details": {
      "address": "船橋市東船橋1-26-10",
      "phone_number": "047-424-3741"
    }
  },
  {
    "name": "ゆめのもり保育園",
    "lat": 35.6978481,
    "lng": 140.0249668,
    "details": {
      "address": "船橋市前原西7-1-19",
      "phone_number": "047-406-4700"
    }
  },
  {
    "name": "船橋どろんこ保育園分園",
    "lat": 35.7014346,
    "lng": 139.9892594,
    "details": {
      "address": "船橋市本町5-18-25",
      "phone_number": "047-409-2871"
    }
  },
  {
    "name": "太陽の子　塚田保育園",
    "lat": 35.7233306,
    "lng": 139.9811933,
    "details": {
      "address": "船橋市行田町352-5",
      "phone_number": "047-406-6006"
    }
  },
  {
    "name": "まなびの森保育園東船橋",
    "lat": 35.6981874,
    "lng": 140.0022367,
    "details": {
      "address": "船橋市東船橋1-18-12",
      "phone_number": "047-411-1155"
    }
  },
  {
    "name": "りんごのき保育園",
    "lat": 35.6983525,
    "lng": 140.0041162,
    "details": {
      "address": "船橋市東船橋1-24-15 グレイス東船橋1階",
      "phone_number": "047-411-8054"
    }
  },
  {
    "name": "新船橋ここわ保育園",
    "lat": 35.7112993,
    "lng": 139.9702804,
    "details": {
      "address": "船橋市海神5-29-61",
      "phone_number": "047-402-6431"
    }
  },
  {
    "name": "西船橋すきっぷ保育園",
    "lat": 35.7102264,
    "lng": 139.9597716,
    "details": {
      "address": "船橋市西船4-12-20",
      "phone_number": "047-401-6251"
    }
  },
  {
    "name": "ラブキッズ",
    "lat": 35.7184533,
    "lng": 139.9707011,
    "details": {
      "address": "船橋市行田3-2-21",
      "phone_number": "047-429-1212"
    }
  },
  {
    "name": "ゆめわかば保育園",
    "lat": 35.6978283,
    "lng": 140.0311049,
    "details": {
      "address": "船橋市前原東2-18-41",
      "phone_number": "047-406-4421"
    }
  },
  {
    "name": "たんぽぽ西船橋駅前保育園",
    "lat": 35.7050271,
    "lng": 139.9576134,
    "details": {
      "address": "船橋市印内町631-1",
      "phone_number": "047-420-3017"
    }
  },
  {
    "name": "たんぽぽ海神町南保育園",
    "lat": 35.702167,
    "lng": 139.9631021,
    "details": {
      "address": "船橋市海神町南1-1428-20",
      "phone_number": "047-495-6200"
    }
  },
  {
    "name": "船橋くれよん保育園",
    "lat": 35.7293129,
    "lng": 140.0599654,
    "details": {
      "address": "船橋市坪井東2-13-27",
      "phone_number": "047-460-9926"
    }
  },
  {
    "name": "Milky Way International Nursery School 新船橋校",
    "lat": 35.7135725,
    "lng": 139.986531,
    "details": {
      "address": "船橋市夏見3-20-11",
      "phone_number": "047-455-3225"
    }
  },
  {
    "name": "西船橋雲母保育園",
    "lat": 35.7081841,
    "lng": 139.9536589,
    "details": {
      "address": "船橋市本郷町456-1-2F",
      "phone_number": "047-709-4300"
    }
  },
  {
    "name": "そらまめ保育園　西船橋",
    "lat": 35.7062407,
    "lng": 139.9686622,
    "details": {
      "address": "船橋市海神6-16-11",
      "phone_number": "047-497-8285"
    }
  },
  {
    "name": "まなびの森保育園船橋競馬場駅前",
    "lat": 35.6895785,
    "lng": 139.9970893,
    "details": {
      "address": "船橋市宮本9-1-11",
      "phone_number": "047-402-4402"
    }
  },
  {
    "name": "ポポラー千葉新船橋園",
    "lat": 35.711967,
    "lng": 139.9815336,
    "details": {
      "address": "船橋市北本町1-12-17-2F",
      "phone_number": "047-460-3040"
    }
  },
  {
    "name": "船橋うめのき保育園",
    "lat": 35.7309558,
    "lng": 139.9702129,
    "details": {
      "address": "船橋市上山町1-225-3",
      "phone_number": "047-710-5431"
    }
  },
  {
    "name": "ミアヘルサ保育園ひびき新船橋北",
    "lat": 35.7134013,
    "lng": 139.9770724,
    "details": {
      "address": "船橋市山手1-1-11",
      "phone_number": "047-498-9370"
    }
  },
  {
    "name": "船橋こどもの木保育園",
    "lat": 35.7254832,
    "lng": 140.0352901,
    "details": {
      "address": "船橋市西習志野2-6-1",
      "phone_number": "047-468-8207"
    }
  },
  {
    "name": "船橋馬込沢雲母保育園",
    "lat": 35.7362892,
    "lng": 139.9803787,
    "details": {
      "address": "船橋市上山町2-487-1",
      "phone_number": "047-430-2424"
    }
  },
  {
    "name": "京進のほいくえん　ＨＯＰＰＡ前原西",
    "lat": 35.698313,
    "lng": 140.0153968,
    "details": {
      "address": "船橋市前原西4-12-15",
      "phone_number": "047-489-5260"
    }
  },
  {
    "name": "ここみ保育園",
    "lat": 35.7003314,
    "lng": 139.9803851,
    "details": {
      "address": "船橋市海神1-8-9",
      "phone_number": "047-432-2904"
    }
  }
]