[
  {
    "name": "小規模保育所　リトルキディ",
    "lat": 35.7283216,
    "lng": 140.0610485,
    "details": {
      "address": "船橋市坪井東3-10-1グランソシア船橋芽吹の杜内",
      "phone_number": "047-436-8011"
    }
  },
  {
    "name": "うみのほいくえん",
    "lat": 35.6957834,
    "lng": 139.9839901,
    "details": {
      "address": "船橋市湊町2-2-20アソルティ船橋102/202",
      "phone_number": "047-468-8698"
    }
  },
  {
    "name": "パルパステル保育園",
    "lat": 35.701883,
    "lng": 139.9886071,
    "details": {
      "address": "船橋市本町5-14-15 パルパステル",
      "phone_number": "047-460-6666"
    }
  },
  {
    "name": "共同保育所子どもの家",
    "lat": 35.7025289,
    "lng": 139.9901585,
    "details": {
      "address": "船橋市本町1-25-18",
      "phone_number": "047-423-1770"
    }
  },
  {
    "name": "キッズランド未来",
    "lat": 35.755853,
    "lng": 140.0243,
    "details": {
      "address": "船橋市二和東6-18-27　1階",
      "phone_number": "047-448-7735"
    }
  },
  {
    "name": "保育ルームキューティー",
    "lat": 35.7006491,
    "lng": 140.0318579,
    "details": {
      "address": "船橋市前原東5-18-4",
      "phone_number": "047-427-7643"
    }
  },
  {
    "name": "太陽の子　船橋三咲保育園",
    "lat": 35.7360544,
    "lng": 140.0238672,
    "details": {
      "address": "船橋市南三咲1-20-10",
      "phone_number": "047-440-6585"
    }
  },
  {
    "name": "ひだまり滝台保育園",
    "lat": 35.7076657,
    "lng": 140.0368097,
    "details": {
      "address": "船橋市滝台1-12-12",
      "phone_number": "047-436-8840"
    }
  },
  {
    "name": "京進のほいくえんHOPPA船橋駅園",
    "lat": 35.7010301,
    "lng": 139.9904967,
    "details": {
      "address": "船橋市本町4-7-17",
      "phone_number": "047-405-2613"
    }
  },
  {
    "name": "京進のほいくえんHOPPA津田沼園",
    "lat": 35.6926794,
    "lng": 140.0190821,
    "details": {
      "address": "船橋市前原西2-7-9-2F",
      "phone_number": "047-409-9571"
    }
  },
  {
    "name": "リトル・清和",
    "lat": 35.726069,
    "lng": 139.97459,
    "details": {
      "address": "船橋市前貝塚町646-8",
      "phone_number": "047-404-7516"
    }
  },
  {
    "name": "トレポンテ駅前保育園",
    "lat": 35.705382,
    "lng": 139.985429,
    "details": {
      "address": "船橋市本町6-8-1",
      "phone_number": "047-409-8816"
    }
  },
  {
    "name": "りりぱっとナーサリー津田沼園",
    "lat": 35.694165,
    "lng": 140.019028,
    "details": {
      "address": "船橋市前原西2-44-10",
      "phone_number": "047-405-2331"
    }
  },
  {
    "name": "りりぱっとナーサリー中山園",
    "lat": 35.715088,
    "lng": 139.942461,
    "details": {
      "address": "船橋市本中山2-23-16",
      "phone_number": "047-303-3038"
    }
  },
  {
    "name": "すずらん保育園",
    "lat": 35.696673,
    "lng": 140.05157,
    "details": {
      "address": "船橋市三山3-39-2",
      "phone_number": "047-409-9541"
    }
  },
  {
    "name": "健伸むぎの子保育園",
    "lat": 35.7460681,
    "lng": 139.9945843,
    "details": {
      "address": "船橋市丸山5-15-15",
      "phone_number": "047-404-8746"
    }
  },
  {
    "name": "クレヨンキッズ北習志野園",
    "lat": 35.7230703,
    "lng": 140.0402922,
    "details": {
      "address": "船橋市習志野台1-34-25",
      "phone_number": "047-456-4440"
    }
  },
  {
    "name": "ココファン・ナーサリー西船橋",
    "lat": 35.7087272,
    "lng": 139.9488259,
    "details": {
      "address": "船橋市二子町610",
      "phone_number": "047-302-7761"
    }
  },
  {
    "name": "東船橋色葉保育園",
    "lat": 35.699519,
    "lng": 140.0051439,
    "details": {
      "address": "船橋市東船橋4-31-9",
      "phone_number": "047-460-2727"
    }
  },
  {
    "name": "リップル保育園西船橋",
    "lat": 35.7074693,
    "lng": 139.9589668,
    "details": {
      "address": "船橋市葛飾町2-378-7",
      "phone_number": "047-401-5567"
    }
  },
  {
    "name": "ひかり保育園",
    "lat": 35.715443,
    "lng": 140.044237,
    "details": {
      "address": "船橋市習志野台4-3-9",
      "phone_number": "047-456-6370"
    }
  },
  {
    "name": "ミアヘルサ保育園ひびき新船橋第二",
    "lat": 35.7114727,
    "lng": 139.9800188,
    "details": {
      "address": "船橋市山手1-3-17",
      "phone_number": "047-409-9055"
    }
  },
  {
    "name": "やきがやなかよし保育園",
    "lat": 35.760641,
    "lng": 140.032849,
    "details": {
      "address": "船橋市八木が谷2-18-1",
      "phone_number": "047-498-9367"
    }
  },
  {
    "name": "サンヴェルデ保育園",
    "lat": 35.7286149,
    "lng": 140.0145948,
    "details": {
      "address": "船橋市緑台2-4-17",
      "phone_number": "047-402-2270"
    }
  },
  {
    "name": "ひだまり保育園",
    "lat": 35.7102321,
    "lng": 140.0376168,
    "details": {
      "address": "船橋市薬円台6-1-1",
      "phone_number": "047-404-8511"
    }
  },
  {
    "name": "こりんご保育園",
    "lat": 35.6991964,
    "lng": 140.0040558,
    "details": {
      "address": "船橋市東船橋1-38-3-2F",
      "phone_number": "047-406-4380"
    }
  }
]