[{"name": "\u82e5\u677e\u5e7c\u7a1a\u5712", "lat": 35.6786083, "lng": 139.9965109, "details": {"address": "\u3012273-0013\u8239\u6a4b\u5e02\u82e5\u677e2-3-3", "phone_number": "047-431-7751"}}, {"name": "\u307e\u306a\u3073\u306e\u68ee\u4fdd\u80b2\u5712\u3000\u8239\u6a4b\u7af6\u99ac\u5834\u99c5\u524d", "lat": 35.6895785, "lng": 139.9970893, "details": {"address": "\u3012273-0003\u8239\u6a4b\u5e02\u5bae\u672c9-1-11", "phone_number": "047-402-4402"}}, {"name": "\u5f25\u751f\u4fdd\u80b2\u5712", "lat": 35.7109802, "lng": 139.9453477, "details": {"address": "\u3012273-0035\u5343\u8449\u770c\u8239\u6a4b\u5e02\u672c\u4e2d\u5c713-4-18", "phone_number": "047-332-7283\uff08\u4e00\u6642\u9810\u304b\u308a\u5c02\u7528\uff09\u203b\u4e88\u7d04\u30b7\u30b9\u30c6\u30e0\u5bfe\u5fdc"}}, {"name": "\u307f\u305d\u3089\u4fdd\u80b2\u5712", "lat": 35.7144269, "lng": 139.9543249, "details": {"address": "\u3012273-0036\u5343\u8449\u770c\u8239\u6a4b\u5e02\u6771\u4e2d\u5c712-1-20", "phone_number": "047-302-2505"}}, {"name": "\u3055\u304f\u3089\u4fdd\u80b2\u5712", "lat": 35.70966629999999, "lng": 139.9502143, "details": {"address": "\u3012273-0034\u5343\u8449\u770c\u8239\u6a4b\u5e02\u4e8c\u5b50\u753a474", "phone_number": "047-302-8302\uff08\u4e00\u6642\u9810\u304b\u308a\u5c02\u7528\uff09\u203b\u4e88\u7d04\u30b7\u30b9\u30c6\u30e0\u5bfe\u5fdc"}}, {"name": "\u30a2\u30ea\u30b9\u306a\u304b\u3088\u3057\u4fdd\u80b2\u5712", "lat": 35.7138845, "lng": 139.9703142, "details": {"address": "\u3012273-0031\u5343\u8449\u770c\u8239\u6a4b\u5e02\u897f\u82392-29-28", "phone_number": "047-436-1215\uff08\u4e00\u6642\u9810\u304b\u308a\u5c02\u7528\uff09\u203b\u4e88\u7d04\u30b7\u30b9\u30c6\u30e0\u5bfe\u5fdc"}}, {"name": "\u6e4a\u753a\u4fdd\u80b2\u5712", "lat": 35.6928239, "lng": 139.9851805, "details": {"address": "\u3012273-0011\u5343\u8449\u770c\u8239\u6a4b\u5e02\u6e4a\u753a1-16-23", "phone_number": "047-431-5085\uff08\u4e00\u6642\u9810\u304b\u308a\u5c02\u7528\uff09"}}, {"name": "\u524d\u539f\u3072\u307e\u308f\u308a\u4fdd\u80b2\u5712", "lat": 35.69672610000001, "lng": 140.0164377, "details": {"address": "\u3012274-0825\u5343\u8449\u770c\u8239\u6a4b\u5e02\u524d\u539f\u897f4-18-19", "phone_number": "047-474-7788"}}, {"name": "\u7530\u559c\u91ce\u4e95\u65ed\u3053\u3069\u3082\u5712", "lat": 35.7032857, "lng": 140.0425001, "details": {"address": "\u3012274-0073\u5343\u8449\u770c\u8239\u6a4b\u5e02\u7530\u559c\u91ce\u4e954-30-12", "phone_number": "047-456-3190\uff08\u4e00\u6642\u9810\u304b\u308a\u5c02\u7528\uff09\u203b\u4e88\u7d04\u30b7\u30b9\u30c6\u30e0\u5bfe\u5fdc"}}, {"name": "\u4e09\u5c71\u3064\u304f\u3057\u4fdd\u80b2\u5712", "lat": 35.6934253, "lng": 140.0625981, "details": {"address": "\u3012274-0072\u5343\u8449\u770c\u8239\u6a4b\u5e02\u4e09\u5c719-31-7", "phone_number": "047-473-4435"}}, {"name": "\u30a2\u30f3\u30c7\u30eb\u30bb\u30f3\u7b2c\u4e8c\u4fdd\u80b2\u5712", "lat": 35.7188662, "lng": 140.0543679, "details": {"address": "\u3012274-0063\u3000\u8239\u6a4b\u5e02\u7fd2\u5fd7\u91ce\u53f05-43-3", "phone_number": "047-468-4673\uff08\u4e00\u6642\u9810\u304b\u308a\u5c02\u7528\uff09\u203b\u4e88\u7d04\u30b7\u30b9\u30c6\u30e0\u5bfe\u5fdc"}}, {"name": "\u3072\u3070\u308a\u4fdd\u80b2\u5712", "lat": 35.7353628, "lng": 140.0400935, "details": {"address": "\u3012274-0064\u5343\u8449\u770c\u8239\u6a4b\u5e02\u677e\u304c\u4e181-33-4", "phone_number": "047-466-5915"}}, {"name": "\u307e\u3053\u3068\u4fdd\u80b2\u5712", "lat": 35.76504750000001, "lng": 140.0555512, "details": {"address": "\u3012274-0056\u5343\u8449\u770c\u8239\u6a4b\u5e02\u795e\u4fdd\u753a275-34", "phone_number": "047-457-1685"}}, {"name": "\u3042\u3059\u306a\u308d\u4fdd\u80b2\u5712", "lat": 35.7419776, "lng": 140.0149078, "details": {"address": "\u3012274-0806\u5343\u8449\u770c\u8239\u6a4b\u5e02\u4e8c\u548c\u897f2-6-1", "phone_number": "047-447-0023"}}, {"name": "\u30af\u30af\u30eb\u306a\u304b\u3088\u3057\u4fdd\u80b2\u5712", "lat": 35.7090598, "lng": 139.9879141, "details": {"address": "\u3012273-0865\u5343\u8449\u770c\u8239\u6a4b\u5e02\u590f\u898b2-11-43", "phone_number": "047-424-0301\uff08\u4e00\u6642\u9810\u304b\u308a\u5c02\u7528\uff09\u203b\u4e88\u7d04\u30b7\u30b9\u30c6\u30e0\u5bfe\u5fdc"}}, {"name": "\u8239\u6a4b\u65ed\u3053\u3069\u3082\u5712", "lat": 35.7305338, "lng": 139.992806, "details": {"address": "\u3012273-0866\u5343\u8449\u770c\u8239\u6a4b\u5e02\u590f\u898b\u53f05-7-13", "phone_number": "047-439-5700\uff08\u4e00\u6642\u9810\u304b\u308a\u5c02\u7528\uff09\u203b\u4e88\u7d04\u30b7\u30b9\u30c6\u30e0\u5bfe\u5fdc"}}, {"name": "\u30ed\u30fc\u30bc\u30f3\u304b\u307f\u3084\u307e\u4fdd\u80b2\u5712", "lat": 35.732562, "lng": 139.9744827, "details": {"address": "\u3012273-0046\u5343\u8449\u770c\u8239\u6a4b\u5e02\u4e0a\u5c71\u753a2-288-1", "phone_number": "047-401-6291\uff08\u4e00\u6642\u9810\u304b\u308a\u5c02\u7528\uff09"}}, {"name": "\u30b7\u30fc\u30ac\u30eb\u4fdd\u80b2\u5712", "lat": 35.713454, "lng": 140.021494, "details": {"address": "\u3012274-0822\u5343\u8449\u770c\u8239\u6a4b\u5e02\u98ef\u5c71\u6e80\u753a2-1007-1", "phone_number": "047-404-8600\uff08\u4e00\u6642\u9810\u304b\u308a\u5c02\u7528\uff09\u203b\u4e88\u7d04\u30b7\u30b9\u30c6\u30e0\u5bfe\u5fdc"}}, {"name": "\u3086\u3044\u307e\u30fc\u308b\u4fdd\u80b2\u5712", "lat": 35.7129199, "lng": 139.9816164, "details": {"address": "\u3012273-0864\u5343\u8449\u770c\u8239\u6a4b\u5e02\u5317\u672c\u753a1-12-8", "phone_number": "047-424-7723\uff08\u4e00\u6642\u9810\u304b\u308a\u5c02\u7528\uff09\u203b\u4e88\u7d04\u30b7\u30b9\u30c6\u30e0\u5bfe\u5fdc"}}, {"name": "\u4e38\u5c71\u65ed\u4fdd\u80b2\u5712", "lat": 35.7431081, "lng": 139.9935858, "details": {"address": "\u3012273-0048\u5343\u8449\u770c\u8239\u6a4b\u5e02\u4e38\u5c715-33-25", "phone_number": "047-438-3385\uff08\u4e00\u6642\u9810\u304b\u308a\u5c02\u7528\uff09\u203b\u4e88\u7d04\u30b7\u30b9\u30c6\u30e0\u5bfe\u5fdc"}}, {"name": "\u3042\u307e\u306d\u306e\u675c\u4fdd\u80b2\u5712", "lat": 35.7227772, "lng": 139.9721272, "details": {"address": "\u3012273-0044\u5343\u8449\u770c\u8239\u6a4b\u5e02\u884c\u75302-9-10", "phone_number": "047-401-5011"}}, {"name": "\u6771\u8239\u6a4b\u3061\u3068\u305b\u4fdd\u80b2\u5712", "lat": 35.6973485, "lng": 140.0046507, "details": {"address": "\u3012273-0002\u5343\u8449\u770c\u8239\u6a4b\u5e02\u6771\u8239\u6a4b1-16-25", "phone_number": "047-423-5717"}}, {"name": "\u53e4\u548c\u91dc\u5e7c\u7a1a\u5712", "lat": 35.7328232, "lng": 140.049007, "details": {"address": "\u3012274-0064\u8239\u6a4b\u5e02\u677e\u304c\u4e184-32-1", "phone_number": "047-464-3030"}}, {"name": "\u5065\u4f38\u5e7c\u7a1a\u5712", "lat": 35.7463627, "lng": 139.9940468, "details": {"address": "\u3012273-0048\u8239\u6a4b\u5e02\u4e38\u5c715-12-7", "phone_number": "047-438-7018\uff08\u4e00\u6642\u9810\u304b\u308a\u5c02\u7528\uff09"}}, {"name": "\u516b\u6728\u30b1\u8c37\u5e7c\u7a1a\u5712", "lat": 35.7606818, "lng": 140.0328772, "details": {"address": "\u3012274-0802\u8239\u6a4b\u5e02\u516b\u6728\u304c\u8c372-18-1", "phone_number": "047-447-6729"}}, {"name": "\u82f1\u9032\u5e7c\u7a1a\u5712", "lat": 35.7544783, "lng": 140.0374044, "details": {"address": "\u3012274-0804\u8239\u6a4b\u5e02\u307f\u3084\u304e\u53f03-10-10", "phone_number": "047-448-2121\uff08\u4e00\u6642\u9810\u304b\u308a\u5c02\u7528\uff09"}}]