[{"name": "\u524d\u539f\u5150\u7ae5\u30db\u30fc\u30e0", "lat": 35.7027062, "lng": 140.0254386, "details": {"address": "\u3012274-0825\u5343\u8449\u770c\u8239\u6a4b\u5e02\u524d\u539f\u897f6-1-12", "phone_number": "047-475-5454"}}, {"name": "\u9ad8\u6839\u53f0\u5150\u7ae5\u30db\u30fc\u30e0", "lat": 35.7330412, "lng": 140.0322415, "details": {"address": "\u3012274-0065\u5343\u8449\u770c\u8239\u6a4b\u5e02\u9ad8\u6839\u53f02-2-2", "phone_number": "047-466-3638"}}, {"name": "\u7fd2\u5fd7\u91ce\u53f0\u5150\u7ae5\u30db\u30fc\u30e0", "lat": 35.7218966, "lng": 140.04875, "details": {"address": "\u3012274-0063\u5343\u8449\u770c\u8239\u6a4b\u5e02\u7fd2\u5fd7\u91ce\u53f03-4-1", "phone_number": "047-464-0001"}}, {"name": "\u91d1\u6749\u53f0\u5150\u7ae5\u30db\u30fc\u30e0", "lat": 35.7359058, "lng": 140.0124781, "details": {"address": "\u3012273-0852\u5343\u8449\u770c\u8239\u6a4b\u5e02\u91d1\u6749\u53f02-2-4", "phone_number": "047-447-7837"}}, {"name": "\u82e5\u677e\u5150\u7ae5\u30db\u30fc\u30e0", "lat": 35.679263, "lng": 139.9968027, "details": {"address": "\u3012273-0013\u5343\u8449\u770c\u8239\u6a4b\u5e02\u82e5\u677e2-3-6", "phone_number": "047-433-7991"}}, {"name": "\u897f\u8239\u5150\u7ae5\u30db\u30fc\u30e0", "lat": 35.7082612, "lng": 139.9507529, "details": {"address": "\u3012273-0033\u5343\u8449\u770c\u8239\u6a4b\u5e02\u672c\u90f7\u753a554", "phone_number": "047-333-2007"}}, {"name": "\u5c0f\u5ba4\u5150\u7ae5\u30db\u30fc\u30e0", "lat": 35.7880718, "lng": 140.0742943, "details": {"address": "\u3012270-1471\u5343\u8449\u770c\u8239\u6a4b\u5e02\u5c0f\u5ba4\u753a3308", "phone_number": "047-457-1000"}}, {"name": "\u4e09\u5c71\u5150\u7ae5\u30db\u30fc\u30e0", "lat": 35.6963776, "lng": 140.0493921, "details": {"address": "\u3012274-0072\u5343\u8449\u770c\u8239\u6a4b\u5e02\u4e09\u5c712-42-3", "phone_number": "047-478-6800"}}, {"name": "\u516b\u6728\u304c\u8c37\u5150\u7ae5\u30db\u30fc\u30e0", "lat": 35.7563729, "lng": 140.0324672, "details": {"address": "\u3012274-0804\u5343\u8449\u770c\u8239\u6a4b\u5e02\u307f\u3084\u304e\u53f01-7-1", "phone_number": "047-448-4400"}}, {"name": "\u677e\u304c\u4e18\u5150\u7ae5\u30db\u30fc\u30e0", "lat": 35.7360034, "lng": 140.0445832, "details": {"address": "\u3012274-0064\u5343\u8449\u770c\u8239\u6a4b\u5e02\u677e\u304c\u4e181-52-22", "phone_number": "047-463-5087"}}, {"name": "\u98ef\u5c71\u6e80\u5150\u7ae5\u30db\u30fc\u30e0", "lat": 35.7078999, "lng": 140.0198409, "details": {"address": "\u3012274-0822\u5343\u8449\u770c\u8239\u6a4b\u5e02\u98ef\u5c71\u6e80\u753a2-488-8", "phone_number": "047-468-0411"}}, {"name": "\u590f\u898b\u5150\u7ae5\u30db\u30fc\u30e0", "lat": 35.7167573, "lng": 139.9903093, "details": {"address": "\u3012273-0865\u5343\u8449\u770c\u8239\u6a4b\u5e02\u590f\u898b4-39-15", "phone_number": "047-423-5999"}}, {"name": "\u585a\u7530\u5150\u7ae5\u30db\u30fc\u30e0", "lat": 35.7234892, "lng": 139.9798471, "details": {"address": "\u3012273-0042\u5343\u8449\u770c\u8239\u6a4b\u5e02\u524d\u8c9d\u585a\u753a601-1", "phone_number": "047-439-9299"}}, {"name": "\u5bae\u672c\u5150\u7ae5\u30db\u30fc\u30e0", "lat": 35.697704, "lng": 139.9950342, "details": {"address": "\u3012273-0003\u5343\u8449\u770c\u8239\u6a4b\u5e02\u5bae\u672c6-18-1", "phone_number": "047-424-9842"}}, {"name": "\u4e09\u54b2\u5150\u7ae5\u30db\u30fc\u30e0", "lat": 35.75250680000001, "lng": 140.0343764, "details": {"address": "\u3012274-0812\u5343\u8449\u770c\u8239\u6a4b\u5e02\u4e09\u54b23-5-10", "phone_number": "047-448-2397"}}, {"name": "\u65b0\u9ad8\u6839\u5150\u7ae5\u30db\u30fc\u30e0", "lat": 35.7239439, "lng": 140.021716, "details": {"address": "\u3012274-0814\u5343\u8449\u770c\u8239\u6a4b\u5e02\u65b0\u9ad8\u68391-12-9", "phone_number": "047-469-3940"}}, {"name": "\u85ac\u5186\u53f0\u5150\u7ae5\u30db\u30fc\u30e0", "lat": 35.7102158, "lng": 140.0397678, "details": {"address": "\u3012274-0077\u5343\u8449\u770c\u8239\u6a4b\u5e02\u85ac\u5186\u53f05-18-1", "phone_number": "047-469-4884"}}, {"name": "\u6d77\u795e\u5150\u7ae5\u30db\u30fc\u30e0", "lat": 35.70111199999999, "lng": 139.9750017, "details": {"address": "\u3012273-0022\u5343\u8449\u770c\u8239\u6a4b\u5e02\u6d77\u795e\u753a2-264-5", "phone_number": "047-432-4661"}}, {"name": "\u6cd5\u5178\u5150\u7ae5\u30db\u30fc\u30e0", "lat": 35.7348728, "lng": 139.9754187, "details": {"address": "\u3012273-0047\u5343\u8449\u770c\u8239\u6a4b\u5e02\u85e4\u539f3-2-15", "phone_number": "047-429-0813"}}, {"name": "\u672c\u4e2d\u5c71\u5150\u7ae5\u30db\u30fc\u30e0", "lat": 35.715553, "lng": 139.9472182, "details": {"address": "\u3012273-0035\u5343\u8449\u770c\u8239\u6a4b\u5e02\u672c\u4e2d\u5c711-6-6", "phone_number": "047-333-7701"}}, {"name": "\u576a\u4e95\u5150\u7ae5\u30db\u30fc\u30e0", "lat": 35.73261129999999, "lng": 140.0582971, "details": {"address": "\u3012274-0062\u5343\u8449\u770c\u8239\u6a4b\u5e02\u576a\u4e95\u753a755-4", "phone_number": "047-468-1505"}}]