[{"name": "\u30b3\u30df\u30e5\u30cb\u30c6\u30a3\u30af\u30ea\u30cb\u30c3\u30af\u307f\u3055\u304d\u300c\u75c5\u5150\u4fdd\u80b2\u5ba4\u308f\u304b\u3070\u300d", "lat": 35.7498823, "lng": 140.0313646, "details": {"address": "\u3012274-0812\u3000\u8239\u6a4b\u5e02\u4e09\u54b23-1-15 (\u30b3\u30df\u30e5\u30cb\u30c6\u30a3\u30af\u30ea\u30cb\u30c3\u30af\u307f\u3055\u304d\u96a3)", "phone_number": "047-448-4008"}}, {"name": "\u30c8\u30ec\u30dd\u30f3\u30c6\u3053\u3069\u3082\u30af\u30ea\u30cb\u30c3\u30af\u300c\u30c8\u30ec\u30dd\u30f3\u30c6\u300d", "lat": 35.7210742, "lng": 139.9972137, "details": {"address": "\u3012273-0867\u5343\u8449\u770c\u8239\u6a4b\u5e02\u590f\u898b\u753a2-566 (\u30c8\u30ec\u30dd\u30f3\u30c6\u3053\u3069\u3082\u30af\u30ea\u30cb\u30c3\u30af2\u968e)", "phone_number": "047-429-5403"}}, {"name": "\u3055\u304f\u3089\u4fdd\u80b2\u5712\u300c\u30a2\u30a4\u30ea\u30b9\u30eb\u30fc\u30e0\u300d\uff08\u75c5\u5f8c\u5150\u4fdd\u80b2\u306e\u307f\uff09", "lat": 35.7096658, "lng": 139.9501643, "details": {"address": "\u3012273-0034\u5343\u8449\u770c\u8239\u6a4b\u5e02\u4e8c\u5b50\u753a474 ( \u3055\u304f\u3089\u4fdd\u80b2\u5712\u5185)", "phone_number": "047-302-8303"}}, {"name": "\u4f50\u91ce\u533b\u9662\u300c\u30aa\u30fc\u30fb\u30ad\u30c3\u30ba\u300d", "lat": 35.69737569999999, "lng": 139.9875931, "details": {"address": "\u3012273-0005\u5343\u8449\u770c\u8239\u6a4b\u5e02\u672c\u753a3-3-7 (\u4f50\u91ce\u533b\u96622\u968e)", "phone_number": "080-3416-0122"}}, {"name": "\u611b\u80b2\u30ec\u30c7\u30a3\u30fc\u30b9\u30af\u30ea\u30cb\u30c3\u30af\u300c\u30a2\u30c8\u30e0\u300d", "lat": 35.6977118, "lng": 140.0620586, "details": {"address": "\u3012274-0071\u5343\u8449\u770c\u8239\u6a4b\u5e02\u7fd2\u5fd7\u91ce5-10-30 \uff08\u611b\u80b2\u30ec\u30c7\u30a3\u30fc\u30b9\u30af\u30ea\u30cb\u30c3\u30af\u4f75\u8a2d\uff09", "phone_number": "080-2151-1103"}}]