[{"name": "\u30ad\u30c3\u30ba\u30cf\u30a6\u30b9\u304f\u308c\u3088\u3093", "lat": 35.7160114, "lng": 139.9852784, "details": {"address": "\u3012273-0864\u5343\u8449\u770c\u8239\u6a4b\u5e02\u5317\u672c\u753a2-21-18", "phone_number": "047-423-5729"}}, {"name": "\u3042\u305a\u304b\u30eb\u30f3\u30d0", "lat": 35.6875018, "lng": 139.9932651, "details": {"address": "\u3012273-0012\u5343\u8449\u770c\u8239\u6a4b\u5e02\u6d5c\u753a2-2-7\u3000\u30d3\u30d3\u30c3\u30c8\u5357\u8239\u6a4b4\uff26", "phone_number": "047-402-6613"}}, {"name": "\u30ea\u30c8\u30eb\u30ac\u30fc\u30c7\u30f3\u30a4\u30f3\u30bf\u30fc\u30ca\u30b7\u30e7\u30ca\u30eb\u30b9\u30af\u30fc\u30eb", "lat": 35.6848031, "lng": 139.9922475, "details": {"address": "\u3012273-0012\u5343\u8449\u770c\u8239\u6a4b\u5e02\u6d5c\u753a2-1-1\u3000\u4e09\u4e95\u30d3\u30eb\u30c7\u30a3\u30f3\u30b01F", "phone_number": "047-404-4321"}}, {"name": "\u897f\u8239\u6a4b\u5317\u53e3\u99c5\u524d\u30ad\u30c3\u30ba\u30eb\u30fc\u30e0", "lat": 35.7091704, "lng": 139.9584602, "details": {"address": "\u3012273-0031\u5343\u8449\u770c\u8239\u6a4b\u5e02\u897f\u82394-21-1\u3000\u30c7\u30a4\u30b8\u30a4\u30d5\u30a1\u30fc\u30b9\u30c8\u30d3\u30eb502\u53f7", "phone_number": "047-435-6900"}}, {"name": "\u99c5\u524d\u4fdd\u80b2\u5712\u3000\u308a\u308a\u3071\u3063\u3068", "lat": 35.6918508, "lng": 140.020578, "details": {"address": "\u3012274-0825\u5343\u8449\u770c\u8239\u6a4b\u5e02\u524d\u539f\u897f2-14-1\u3000\u30c0\u30a4\u30a2\u30d1\u30ec\u30b9\u6d25\u7530\u6cbc1302", "phone_number": "047-476-3318"}}, {"name": "E-Life International School", "lat": 35.731498, "lng": 139.9691628, "details": {"address": "\u3012273-0047\u5343\u8449\u770c\u8239\u6a4b\u5e02\u85e4\u539f2-18-30\u3000\u30bd\u30ec\u30a2\u30fc\u30c9\u2160105", "phone_number": "047-375-8866"}}, {"name": "\u8239\u6a4b\u30a4\u30f3\u30bf\u30fc\u30ca\u30b7\u30e7\u30ca\u30eb\u30b9\u30af\u30fc\u30eb[FIS]", "lat": 35.7047, "lng": 139.9864628, "details": {"address": "\u3012273-0005\u5343\u8449\u770c\u8239\u6a4b\u5e02\u672c\u753a6-5-8\u3000\u30b9\u30c6\u30a4\u30bf\u30b9YUHARA102", "phone_number": "050-5586-2086"}}, {"name": "Kids Club \u30ab\u30ea\u30f3\uff08\u4f11\u5712\uff09", "lat": 35.7019546, "lng": 139.961405, "details": {"address": "\u3012273-0024\u5343\u8449\u770c\u8239\u6a4b\u5e02\u6d77\u795e\u753a\u53571-741-1 \u30a2\u30fc\u30c6\u30a3\u30b6\u30f3\u897f\u8239\u6a4b401", "phone_number": "047-433-0640"}}, {"name": "ICE\u30e2\u30f3\u30c6\u30c3\u30bd\u30fc\u30ea\u3053\u3069\u3082\u306e\u3044\u3048\u897f\u8239\u6a4b", "lat": 35.7072246, "lng": 139.9580396, "details": {"address": "\u3012273-0032\u5343\u8449\u770c\u8239\u6a4b\u5e02\u845b\u98fe\u753a2-336-1 \u30ad\u30e5\u30fc\u30d3\u30eb5F", "phone_number": "047-401-4765"}}, {"name": "\u30ad\u30c3\u30ba\u30eb\u30fc\u30e0\u3000\u68ee\u306e\u304f\u307e\u3055\u3093", "lat": 35.7505274, "lng": 140.0316198, "details": {"address": "\u3012274-0812\u5343\u8449\u770c\u8239\u6a4b\u5e02\u4e09\u54b23-1-14\u3000\u5897\u7530\u30cf\u30a4\u30c4106", "phone_number": "080-4435-5952"}}, {"name": "\u30d5\u30a1\u30df\u30ea\u30fc\u4fdd\u80b2\u5ba4\u5206\u5712\u3000\u3075\u308c\u3093\u3069", "lat": 35.7124121, "lng": 140.0333325, "details": {"address": "\u3012274-0822\u5343\u8449\u770c\u8239\u6a4b\u5e02\u98ef\u5c71\u6e80\u753a3-1513-2\u968e", "phone_number": "047-769-4619"}}, {"name": "\u30b0\u30ea\u30fc\u30f3\u30d9\u30a2\u30d9\u30a4\u30b5\u30a4\u30c9\u8239\u6a4b\u590f\u898b\u6821", "lat": 35.7066388, "lng": 139.9886003, "details": {"address": "\u3012273-0865\u5343\u8449\u770c\u8239\u6a4b\u5e02\u590f\u898b1-9-27", "phone_number": "047-411-0555"}}, {"name": "\u30ad\u30c3\u30ba\u30b9\u30c6\u30fc\u30b7\u30e7\u30f3", "lat": 35.7190389, "lng": 139.9706696, "details": {"address": "\u3012273-0044\u5343\u8449\u770c\u8239\u6a4b\u5e02\u884c\u75303-2-13-103", "phone_number": "047-779-3802"}}, {"name": "\u30ca\u30fc\u30b5\u30ea\u30fc\u30db\u30fc\u30e0\u8239\u6a4b", "lat": 35.7145757, "lng": 139.9852471, "details": {"address": "\u3012273-0864\u5343\u8449\u770c\u8239\u6a4b\u5e02\u5317\u672c\u753a2-65-1", "phone_number": "047-411-5178"}}, {"name": "\u30ab\u30c7\u30ca\u30fb\u30a2\u30e1\u30ea\u30ab\u30f3\u30fb\u30d7\u30ea\u30b9\u30af\u30fc\u30eb", "lat": 35.6943048, "lng": 140.0229964, "details": {"address": "\u3012274-0825\u3000\u5343\u8449\u770c\u8239\u6a4b\u5e02\u524d\u539f\u897f2-32-5\u30003\u968e", "phone_number": "047-474-0808"}}, {"name": "\u308a\u308a\u3071\u3063\u3068steps", "lat": 35.6934833, "lng": 140.0209859, "details": {"address": "\u3012274-0825\u5343\u8449\u770c\u8239\u6a4b\u5e02\u524d\u539f\u897f2-11-6", "phone_number": "047-411-8817"}}, {"name": "\u83c5\u9577\u5b66\u5712", "lat": 35.7046731, "lng": 140.0568955, "details": {"address": "\u3012274-0072\u5343\u8449\u770c\u8239\u6a4b\u5e02\u4e09\u5c716-18-10", "phone_number": "047-477-7799"}}, {"name": "\u3072\u307e\u308f\u308a\u30ac\u30fc\u30c7\u30f3\u897f\u8239\u6a4b", "lat": 35.7027148, "lng": 139.9621862, "details": {"address": "\u3012273-0024\u5343\u8449\u770c\u8239\u6a4b\u5e02\u6d77\u795e\u753a\u53571-1742-1", "phone_number": "047-401-8721"}}, {"name": "Milky Way International Nursery Center\u4e0b\u7dcf\u4e2d\u5c71\u6821", "lat": 35.7150907, "lng": 139.9437115, "details": {"address": "\u3012273-0035\u5343\u8449\u770c\u8239\u6a4b\u5e02\u672c\u4e2d\u5c712\u4e01\u76ee15\u756a7\u53f7", "phone_number": "047-314-8433"}}, {"name": "RuRi\u8239\u6a4b\u4fdd\u80b2\u5712", "lat": 35.7065727, "lng": 140.0252825, "details": {"address": "\u3012274-0822\u3000\u5343\u8449\u770c\u8239\u6a4b\u5e02\u98ef\u5c71\u6e80\u753a2-627-2", "phone_number": "047-440-8744"}}, {"name": "\u30b3\u30f3\u30d1\u30b9\u5e7c\u4fdd\u5712\u3000\u8239\u6a4b\u6821", "lat": 35.74241689999999, "lng": 139.9909158, "details": {"address": "\u3012273-0047\u5343\u8449\u770c\u8239\u6a4b\u5e02\u85e4\u539f7-17-28\u3000\u65e5\u672c\u90fd\u5e02\u99ac\u8fbc\u6ca2\u30d3\u30eb4F", "phone_number": "047-401-0000"}}, {"name": "\u3072\u307e\u308f\u308a\u30ac\u30fc\u30c7\u30f3\u85ac\u5186\u53f0", "lat": 35.7096316, "lng": 140.0388203, "details": {"address": "\u3012274-0077\u5343\u8449\u770c\u8239\u6a4b\u5e02\u85ac\u5186\u53f05-4-8", "phone_number": "047-402-6752"}}]