[{"name": "\u8239\u6a4b\u65ed\u3053\u3069\u3082\u5712", "lat": 35.7305338, "lng": 139.992806, "details": {"address": "\u3012273-0866\u3000\u8239\u6a4b\u5e02\u590f\u898b\u53f05-7-13", "phone_number": "\u96fb\u8a71\uff1a047-439-0010 FAX\uff1a047-430-0238"}}, {"name": "\u7530\u559c\u91ce\u4e95\u65ed\u3053\u3069\u3082\u5712", "lat": 35.7032857, "lng": 140.0425001, "details": {"address": "\u3012274-0073\u3000\u8239\u6a4b\u5e02\u7530\u559c\u91ce\u4e954-30-12", "phone_number": "\u96fb\u8a71\uff1a047-456-3180 FAX\uff1a047-461-2000"}}, {"name": "\u8a8d\u5b9a\u3053\u3069\u3082\u5712 \u4e0d\u4e8c\u5e7c\u7a1a\u5712", "lat": 35.711068, "lng": 140.0213352, "details": {"address": "\u3012274-0822\u3000\u8239\u6a4b\u5e02\u98ef\u5c71\u6e80\u753a2-666", "phone_number": "\u96fb\u8a71\uff1a047-466-2925 FAX \uff1a047-466-2989"}}, {"name": "\u8a8d\u5b9a\u3053\u3069\u3082\u5712\u304a\u3072\u3055\u307e", "lat": 35.7028885, "lng": 140.0230721, "details": {"address": "\u3012274-0825\u3000\u8239\u6a4b\u5e02\u524d\u539f\u897f6-1-64", "phone_number": "\u96fb\u8a71\uff1a047-476-7802 FAX\uff1a047-411-7705"}}, {"name": "\u5e7c\u4fdd\u9023\u643a\u578b\u8a8d\u5b9a\u3053\u3069\u3082\u5712 \u5927\u6d5c\u5e7c\u7a1a\u5712", "lat": 35.7134375, "lng": 140.0463226, "details": {"address": "\u3012274-0077\u3000\u8239\u6a4b\u5e02\u85ac\u5186\u53f04-6-3", "phone_number": "\u96fb\u8a71\uff1a047-466-5720 FAX \uff1a047-466-5954"}}, {"name": "\u305d\u3089\u307e\u3081\u3053\u3069\u3082\u5712 \u8239\u6a4b\u99c5\u524d", "lat": 35.7003903, "lng": 139.9838209, "details": {"address": "\u3012273-0005\u3000\u8239\u6a4b\u5e02\u672c\u753a1-30-1", "phone_number": "\u96fb\u8a71\uff1a047-405-9951 FAX\uff1a047-405-9952"}}, {"name": "\u9ad8\u6839\u53f0\u6587\u5316\u3053\u3069\u3082\u5712", "lat": 35.7316189, "lng": 140.041434, "details": {"address": "\u3012274-0065\u3000\u8239\u6a4b\u5e02\u9ad8\u6839\u53f03-3-2", "phone_number": "\u96fb\u8a71\uff1a047-466-2511 FAX\uff1a047-466-2511"}}, {"name": "\u5e7c\u4fdd\u9023\u643a\u578b\u8a8d\u5b9a\u3053\u3069\u3082\u5712\u3000\u4e8c\u548c\u3072\u3064\u3058\u5e7c\u7a1a\u5712", "lat": 35.7550246, "lng": 140.0249014, "details": {"address": "\u3012274-0805\u3000\u8239\u6a4b\u5e02\u4e8c\u548c\u67716-23-21", "phone_number": "\u96fb\u8a71\uff1a047-447-2041 FAX\uff1a047-447-2041"}}]